     3.02           OBSERVATION DATA    G                   RINEX VERSION / TYPE
G = GPS  R = GLONASS  E = GALILEO  S = GEO  M = MIXED       COMMENT             
GNSS-SDR            UNKNOWN USER        20210328 184519 UTC PGM / RUN BY / DATE 
GPS OBSERVATION DATA FILE GENERATED BY GNSS-SDR             COMMENT             
GNSS-SDR VERSION 0.0.11                                     COMMENT             
See https://gnss-sdr.org                                    COMMENT             
DEFAULT MARKER NAME                                         MARKER NAME         
UNKNOWN USER        CTTC                                    OBSERVER / AGENCY   
GNSS-SDR            Software Receiver   0.0.11              REC # / TYPE / VERS 
Antenna number      Antenna type                            ANT # / TYPE        
        0.0000        0.0000        0.0000                  APPROX POSITION XYZ 
        0.0000        0.0000        0.0000                  ANTENNA: DELTA H/E/N
G    4 C1C L1C D1C S1C                                      SYS / # / OBS TYPES 
DBHZ                                                        SIGNAL STRENGTH UNIT
  2020    02    06    15    06   48.3000000     GPS         TIME OF FIRST OBS   
    18    18   137     7                                    LEAP SECONDS        
                                                            END OF HEADER       
> 2020 02 06 15 06 48.3000000  0  9                                             
G01  21037412.896 8    -18647.791 8       473.632 8        53.832               
G03  23067175.639 8   -102906.810 8      2813.387 8        49.000               
G08  25666574.225 7    105183.054 7     -2746.413 7        42.588               
G10  24041725.133 7    107805.096 7     -2820.246 7        46.351               
G11  22012500.641 8     85566.826 8     -2246.833 8        50.354               
G14  21020086.876 9     53492.985 9     -1402.696 9        54.791               
G18  20678952.218 9     56073.533 9     -1476.750 9        55.471               
G23  25071027.905 7   -103677.325 7      2708.188 7        45.620               
G25  24694000.115 7    -41059.973 7      1076.364 7        46.806               
> 2020 02 06 15 06 48.4000000  0  9                                             
G01  21037403.651 8    -18695.412 8       474.744 8        53.959               
G03  23067122.311 8   -103188.270 8      2815.461 8        49.078               
G08  25666625.164 7    105457.517 7     -2743.901 7        42.592               
G10  24041778.484 7    108086.760 7     -2816.967 7        46.075               
G11  22012542.377 8     85791.223 8     -2246.118 8        50.400               
G14  21020113.424 9     53633.035 9     -1402.830 9        54.630               
G18  20678979.516 9     56221.051 9     -1476.624 9        55.426               
G23  25070976.847 7   -103948.102 7      2707.744 7        45.711               
G25  24693978.398 7    -41167.820 7      1075.534 7        46.727               
> 2020 02 06 15 06 48.5000000  0  9                                             
G01  21037394.135 9    -18742.905 9       473.955 9        54.081               
G03  23067068.731 8   -103469.609 8      2812.068 8        49.095               
G08  25666676.706 7    105732.091 7     -2749.980 7        42.586               
G10  24041832.117 7    108368.547 7     -2821.963 7        45.921               
G11  22012584.967 8     86015.743 8     -2247.183 8        50.597               
G14  21020139.485 9     53773.205 9     -1402.511 9        54.598               
G18  20679008.240 9     56368.692 9     -1476.861 9        55.346               
G23  25070925.786 7   -104218.759 7      2705.024 7        45.732               
G25  24693957.322 7    -41275.550 7      1077.611 7        46.626               
> 2020 02 06 15 06 48.6000000  0  9                                             
G01  21037383.408 9    -18791.038 9       474.890 9        54.035               
G03  23067014.510 8   -103751.593 8      2813.157 8        49.136               
G08  25666724.893 7    106006.055 7     -2749.161 7        42.620               
G10  24041885.218 7    108649.689 7     -2820.107 7        45.868               
G11  22012626.953 8     86239.627 8     -2246.039 8        50.599               
G14  21020165.371 9     53912.736 9     -1402.389 9        54.617               
G18  20679034.537 9     56515.708 9     -1477.301 9        55.220               
G23  25070873.638 7   -104490.058 7      2704.832 7        45.779               
G25  24693936.284 7    -41383.906 7      1072.684 7        46.619               
> 2020 02 06 15 06 48.7000000  0  9                                             
G01  21037374.114 9    -18838.094 9       473.246 9        54.158               
G03  23066961.258 8   -104032.507 8      2815.654 8        49.229               
G08  25666778.623 7    106281.051 7     -2743.303 7        42.723               
G10  24041939.323 7    108931.899 7     -2820.480 7        45.869               
G11  22012670.140 8     86464.583 8     -2245.582 8        50.399               
G14  21020193.155 9     54053.335 9     -1401.638 9        54.565               
G18  20679063.715 9     56663.785 9     -1477.529 9        55.078               
G23  25070823.048 7   -104760.296 7      2702.236 7        45.885               
G25  24693916.053 7    -41491.200 7      1076.538 7        46.411               
> 2020 02 06 15 06 48.8000000  0  9                                             
G01  21037364.450 9    -18885.782 9       474.472 9        54.307               
G03  23066907.851 8   -104314.059 8      2812.402 8        49.378               
G08  25666827.409 7    106555.426 7     -2746.676 7        42.642               
G10  24041992.290 7    109213.475 7     -2817.151 7        45.864               
G11  22012712.922 8     86688.901 8     -2247.144 8        50.261               
G14  21020219.444 9     54193.303 9     -1403.283 9        54.423               
G18  20679091.415 9     56811.236 9     -1477.247 9        54.965               
G23  25070770.785 7   -105031.165 7      2702.580 7        45.816               
G25  24693896.062 7    -41599.116 7      1078.217 7        46.339               
> 2020 02 06 15 06 48.9000000  0  9                                             
G01  21037356.415 9    -18932.432 9       474.145 9        54.439               
G03  23066854.642 8   -104594.579 8      2813.005 8        49.450               
G08  25666881.772 7    106830.812 7     -2748.068 7        42.660               
G10  24042046.367 7    109496.082 7     -2818.842 7        45.834               
G11  22012756.153 8     86914.260 8     -2246.943 8        50.103               
G14  21020246.736 9     54334.301 9     -1403.034 9        54.290               
G18  20679120.565 9     56959.726 9     -1477.675 9        54.839               
G23  25070719.667 7   -105301.004 7      2706.721 7        45.772               
G25  24693876.554 7    -41706.002 7      1076.138 7        46.197               
> 2020 02 06 15 06 49.0000000  0  9                                             
G01  21037347.496 9    -18980.501 9       474.137 9        54.516               
G03  23066800.783 8   -104876.520 8      2813.771 8        49.493               
G08  25666934.591 7    107104.785 7     -2747.676 7        42.708               
G10  24042099.633 7    109777.270 7     -2812.420 7        45.947               
G11  22012798.447 8     87138.201 8     -2245.595 8        49.895               
G14  21020272.036 9     54473.877 9     -1400.885 9        54.233               
G18  20679148.064 9     57106.792 9     -1476.859 9        54.611               
G23  25070664.700 7   -105572.261 7      2701.603 7        45.851               
G25  24693854.234 7    -41814.310 7      1077.894 7        46.127               
> 2020 02 06 15 06 49.1000000  0  9                                             
G01  21037339.087 9    -19027.613 9       474.226 9        54.546               
G03  23066747.344 8   -105157.515 8      2811.804 8        49.571               
G08  25666988.187 7    107379.701 7     -2747.761 7        42.698               
G10  24042153.855 7    110059.408 7     -2819.281 7        45.957               
G11  22012841.662 8     87363.093 8     -2248.303 8        49.762               
G14  21020299.723 9     54614.408 9     -1402.797 9        54.305               
G18  20679176.751 9     57254.823 9     -1477.812 9        54.483               
G23  25070613.674 7   -105842.573 7      2705.866 7        45.828               
G25  24693834.371 7    -41921.664 7      1076.955 7        46.038               
> 2020 02 06 15 06 49.2000000  0  9                                             
G01  21037330.573 9    -19074.492 9       473.111 9        54.531               
G03  23066694.729 8   -105438.282 8      2814.758 8        49.488               
G08  25667042.894 7    107654.834 7     -2747.457 7        42.946               
G10  24042207.364 7    110341.771 7     -2820.479 7        45.963               
G11  22012883.913 8     87588.216 8     -2245.560 8        49.566               
G14  21020327.018 9     54755.166 9     -1402.703 9        54.456               
G18  20679205.404 9     57403.076 9     -1477.685 9        54.366               
G23  25070564.418 7   -106112.660 7      2708.016 7        45.821               
G25  24693813.634 7    -42028.783 7      1077.211 7        45.923               
> 2020 02 06 15 06 49.3000000  0  9                                             
G01  21037321.277 9    -19122.046 9       473.120 9        54.471               
G03  23066640.975 8   -105719.732 8      2812.769 8        49.448               
G08  25667095.925 7    107929.298 7     -2745.693 7        43.029               
G10  24042261.217 7    110623.451 7     -2816.781 7        46.083               
G11  22012926.491 8     87812.660 8     -2247.458 8        49.334               
G14  21020353.621 9     54895.242 9     -1402.496 9        54.627               
G18  20679233.526 9     57550.658 9     -1478.033 9        54.245               
G23  25070514.184 7   -106383.429 7      2706.966 7        45.801               
G25  24693793.956 7    -42136.581 7      1084.272 7        45.743               
> 2020 02 06 15 06 49.4000000  0  9                                             
G01  21037312.138 9    -19169.633 9       473.713 9        54.496               
G03  23066587.092 8   -106001.212 8      2811.985 8        49.522               
G08  25667148.291 7    108203.723 7     -2747.437 7        43.138               
G10  24042314.566 7    110905.107 7     -2818.931 7        46.015               
G11  22012969.136 8     88037.075 8     -2247.030 8        49.247               
G14  21020379.273 9     55035.289 9     -1403.334 9        54.867               
G18  20679261.215 9     57698.213 9     -1478.944 9        54.146               
G23  25070461.981 7   -106654.223 7      2704.939 7        45.833               
G25  24693774.382 7    -42244.408 7      1076.402 7        45.458               
> 2020 02 06 15 06 49.5000000  0  9                                             
G01  21037304.168 9    -19216.782 9       474.033 9        54.519               
G03  23066533.574 8   -106282.272 8      2811.157 8        49.498               
G08  25667200.807 7    108478.576 7     -2751.600 7        43.135               
G10  24042368.744 7    111187.178 7     -2815.527 7        45.961               
G11  22013011.771 8     88261.918 8     -2246.231 8        49.182               
G14  21020406.880 9     55175.763 9     -1402.375 9        55.091               
G18  20679288.965 9     57846.195 9     -1478.392 9        54.061               
G23  25070410.732 7   -106924.597 7      2705.484 7        45.746               
G25  24693753.260 7    -42351.800 7      1078.304 7        45.350               
> 2020 02 06 15 06 49.6000000  0  9                                             
G01  21037295.994 9    -19263.877 9       473.344 9        54.461               
G03  23066480.280 8   -106563.273 8      2811.541 8        49.399               
G08  25667252.656 7    108753.465 7     -2747.389 7        43.128               
G10  24042422.487 7    111469.311 7     -2816.225 7        45.947               
G11  22013055.971 8     88486.821 8     -2245.958 8        49.117               
G14  21020434.087 9     55316.294 9     -1402.385 9        55.186               
G18  20679318.226 8     57994.244 8     -1477.597 8        53.980               
G23  25070357.903 7   -107194.919 7      2706.223 7        45.659               
G25  24693731.791 7    -42459.142 7      1074.310 7        45.392               
> 2020 02 06 15 06 49.7000000  0  9                                             
G01  21037287.293 9    -19311.040 9       472.912 9        54.388               
G03  23066426.961 8   -106844.353 8      2811.366 8        49.382               
G08  25667304.030 7    109028.275 7     -2749.597 7        43.092               
G10  24042476.006 7    111751.368 7     -2816.984 7        45.859               
G11  22013098.608 8     88711.650 8     -2246.338 8        49.294               
G14  21020461.052 9     55456.745 9     -1402.566 9        55.183               
G18  20679346.032 8     58142.215 8     -1477.508 8        53.935               
G23  25070307.907 7   -107465.318 7      2705.546 7        45.560               
G25  24693712.083 7    -42566.555 7      1078.812 7        45.485               
> 2020 02 06 15 06 49.8000000  0  9                                             
G01  21037277.150 9    -19358.454 9       472.310 9        54.194               
G03  23066373.521 8   -107125.688 8      2812.106 8        49.416               
G08  25667354.231 7    109302.838 7     -2749.281 7        42.928               
G10  24042529.351 7    112033.171 7     -2818.442 7        46.023               
G11  22013140.839 8     88936.234 8     -2245.068 8        49.425               
G14  21020487.148 9     55596.948 9     -1403.693 9        55.116               
G18  20679374.414 8     58289.941 8     -1477.923 8        53.904               
G23  25070257.684 7   -107735.965 7      2706.296 7        45.349               
G25  24693692.791 7    -42674.213 7      1078.063 7        45.568               
> 2020 02 06 15 06 49.9000000  0  9                                             
G01  21037267.410 9    -19406.100 9       473.790 9        54.016               
G03  23066319.270 8   -107407.266 8      2813.602 8        49.391               
G08  25667404.638 7    109577.162 7     -2751.613 7        43.020               
G10  24042583.154 7    112314.737 7     -2820.254 7        46.195               
G11  22013184.063 8     89160.576 8     -2245.542 8        49.559               
G14  21020513.414 9     55736.910 9     -1403.407 9        55.036               
G18  20679402.414 8     58437.432 8     -1478.636 8        53.922               
G23  25070204.487 7   -108006.860 7      2706.959 7        45.222               
G25  24693672.562 7    -42782.114 7      1078.127 7        45.550               
> 2020 02 06 15 06 50.0000000  0  9                                             
G01  21037257.640 8    -19453.322 8       474.532 8        53.948               
G03  23066265.721 8   -107688.415 8      2809.769 8        49.480               
G08  25667458.393 7    109851.891 7     -2741.301 7        42.860               
G10  24042637.194 7    112596.723 7     -2819.220 7        46.221               
G11  22013226.185 8     89385.346 8     -2247.660 8        49.851               
G14  21020540.454 9     55877.296 9     -1401.414 9        54.951               
G18  20679430.795 8     58585.348 8     -1478.641 8        53.923               
G23  25070153.529 7   -108277.319 7      2708.524 7        45.062               
G25  24693652.286 7    -42889.582 7      1075.445 7        45.692               
> 2020 02 06 15 06 50.1000000  0  9                                             
G01  21037247.566 8    -19501.216 8       473.543 8        53.719               
G03  23066211.868 8   -107970.256 8      2810.674 8        49.479               
G08  25667508.573 7    110125.944 7     -2749.753 7        42.684               
G10  24042690.538 7    112878.019 7     -2818.212 7        46.318               
G11  22013268.021 8     89609.433 8     -2246.771 8        50.063               
G14  21020566.529 9     56017.000 9     -1402.968 9        54.838               
G18  20679457.835 8     58732.583 8     -1478.225 8        53.804               
G23  25070102.195 7   -108548.470 7      2703.846 7        44.947               
G25  24693630.061 7    -42997.734 7      1075.801 7        45.685               
> 2020 02 06 15 06 50.2000000  0  9                                             
G01  21037239.729 8    -19547.794 8       472.607 8        53.435               
G03  23066158.679 8   -108250.780 8      2813.436 8        49.524               
G08  25667568.692 7    110401.305 7     -2746.329 7        42.837               
G10  24042744.599 7    113160.643 7     -2815.064 7        46.470               
G11  22013312.683 8     89834.844 8     -2246.436 8        50.367               
G14  21020593.769 9     56158.024 9     -1403.273 9        54.708               
G18  20679488.255 8     58881.148 8     -1478.119 8        53.761               
G23  25070050.240 7   -108818.315 7      2705.060 7        44.800               
G25  24693610.877 7    -43104.571 7      1078.153 7        45.644               
> 2020 02 06 15 06 50.3000000  0  9                                             
G01  21037230.875 8    -19595.525 8       473.937 8        53.165               
G03  23066105.474 8   -108532.459 8      2813.455 8        49.570               
G08  25667621.433 7    110675.501 7     -2746.135 7        42.861               
G10  24042797.465 7    113442.102 7     -2822.699 7        46.464               
G11  22013353.863 8     90059.094 8     -2246.404 8        50.692               
G14  21020619.707 9     56297.885 9     -1403.681 9        54.555               
G18  20679514.729 8     59028.551 8     -1478.316 8        53.792               
G23  25069997.428 7   -109089.315 7      2705.086 7        44.668               
G25  24693589.694 7    -43212.548 7      1073.575 7        45.615               
> 2020 02 06 15 06 50.4000000  0  9                                             
G01  21037221.869 8    -19643.112 8       474.063 8        52.910               
G03  23066051.242 8   -108814.000 8      2809.457 8        49.499               
G08  25667674.379 7    110949.847 7     -2749.019 7        42.817               
G10  24042851.894 7    113723.705 7     -2820.126 7        46.560               
G11  22013396.605 8     90283.488 8     -2246.970 8        50.924               
G14  21020646.546 9     56437.892 9     -1402.454 9        54.567               
G18  20679542.747 8     59176.102 8     -1477.524 8        53.999               
G23  25069945.465 7   -109360.159 7      2708.356 7        44.529               
G25  24693568.376 7    -43320.397 7      1074.581 7        45.634               
> 2020 02 06 15 06 50.5000000  0  9                                             
G01  21037212.817 8    -19690.591 8       472.668 8        52.790               
G03  23065997.642 8   -109095.451 8      2812.508 8        49.603               
G08  25667725.867 7    111224.267 7     -2745.574 7        42.932               
G10  24042905.276 7    114005.403 7     -2820.224 7        46.506               
G11  22013439.266 8     90507.990 8     -2247.217 8        51.152               
G14  21020672.946 9     56577.996 9     -1403.189 9        54.660               
G18  20679570.380 9     59323.759 9     -1478.874 9        54.258               
G23  25069894.117 7   -109630.918 7      2703.676 7        44.299               
G25  24693548.584 7    -43428.137 7      1075.675 7        45.513               
> 2020 02 06 15 06 50.6000000  0  9                                             
G01  21037204.340 8    -19737.407 8       471.833 8        52.693               
G03  23065944.546 8   -109376.234 8      2814.250 8        49.611               
G08  25667776.482 7    111499.371 7     -2743.329 7        43.072               
G10  24042958.840 7    114287.762 7     -2818.447 7        46.493               
G11  22013482.376 8     90733.151 8     -2246.088 8        51.189               
G14  21020700.403 9     56718.764 9     -1403.516 9        54.735               
G18  20679598.623 9     59472.079 9     -1477.767 9        54.286               
G23  25069843.683 7   -109901.015 7      2706.451 7        44.075               
G25  24693527.831 7    -43535.209 7      1071.897 7        45.355               
> 2020 02 06 15 06 50.7000000  0  9                                             
G01  21037194.306 8    -19785.622 8       473.201 8        52.551               
G03  23065890.304 8   -109658.421 8      2812.268 8        49.524               
G08  25667827.900 7    111773.055 7     -2742.085 7        43.031               
G10  24043011.473 7    114568.726 7     -2820.275 7        46.426               
G11  22013524.324 8     90956.913 8     -2245.190 8        51.095               
G14  21020725.285 9     56858.127 9     -1402.371 9        54.776               
G18  20679624.524 9     59619.002 9     -1478.067 9        54.300               
G23  25069791.907 7   -110172.518 7      2704.181 7        43.915               
G25  24693505.878 7    -43643.685 7      1070.007 7        45.207               
> 2020 02 06 15 06 50.8000000  0  9                                             
G01  21037187.545 8    -19831.543 8       472.367 8        52.505               
G03  23065838.156 8   -109938.323 8      2811.481 8        49.506               
G08  25667881.358 7    112049.011 7     -2743.726 7        43.050               
G10  24043066.628 7    114851.965 7     -2823.989 7        46.312               
G11  22013567.882 8     91182.970 8     -2247.553 8        50.910               
G14  21020754.584 9     56999.784 9     -1403.060 9        54.810               
G18  20679656.111 9     59768.219 9     -1479.104 9        54.602               
G23  25069742.743 7   -110441.725 7      2707.622 7        43.842               
G25  24693487.163 7    -43749.869 7      1075.049 7        45.127               
> 2020 02 06 15 06 50.9000000  0  9                                             
G01  21037179.122 8    -19878.724 8       473.286 8        52.391               
G03  23065785.060 8   -110219.492 8      2814.995 8        49.596               
G08  25667931.849 7    112323.719 7     -2743.783 7        43.185               
G10  24043119.638 7    115133.942 7     -2818.620 7        46.240               
G11  22013610.903 8     91407.759 8     -2246.542 8        50.747               
G14  21020781.362 9     57140.172 9     -1403.615 9        54.749               
G18  20679683.747 9     59916.172 9     -1478.959 9        54.988               
G23  25069691.523 7   -110712.211 7      2706.480 7        43.868               
G25  24693467.000 7    -43857.316 7      1075.390 7        45.221               
> 2020 02 06 15 06 51.0000000  0  9                                             
G01  21037170.389 8    -19925.916 8       472.072 8        52.291               
G03  23065731.315 8   -110500.682 8      2811.924 8        49.605               
G08  25667980.726 7    112598.394 7     -2746.476 7        43.341               
G10  24043173.018 7    115415.912 7     -2814.942 7        46.209               
G11  22013654.473 8     91632.539 8     -2246.054 8        50.621               
G14  21020808.046 9     57280.544 9     -1403.052 9        54.588               
G18  20679711.413 9     60064.112 9     -1478.785 9        55.193               
G23  25069640.727 7   -110982.726 7      2703.955 7        43.930               
G25  24693447.313 7    -43964.775 7      1074.717 7        45.441               
> 2020 02 06 15 06 51.1000000  0  9                                             
G01  21037160.265 8    -19973.346 8       473.524 8        52.351               
G03  23065677.930 8   -110782.107 8      2812.019 8        49.585               
G08  25668038.540 7    112872.834 7     -2747.940 7        43.318               
G10  24043225.650 7    115697.637 7     -2817.613 7        46.286               
G11  22013696.723 8     91857.078 8     -2247.727 8        50.550               
G14  21020833.678 9     57420.680 9     -1403.883 9        54.420               
G18  20679738.868 9     60211.822 9     -1479.155 9        55.419               
G23  25069588.235 7   -111253.448 7      2703.722 7        44.015               
G25  24693426.575 7    -44072.476 7      1076.330 7        45.542               
> 2020 02 06 15 06 51.2000000  0  9                                             
G01  21037150.705 8    -20020.201 8       471.861 8        52.320               
G03  23065624.967 8   -111062.969 8      2815.795 8        49.540               
G08  25668090.235 7    113147.830 7     -2750.652 7        43.301               
G10  24043279.669 7    115979.926 7     -2818.768 7        46.442               
G11  22013740.199 8     92082.188 8     -2246.092 8        50.525               
G14  21020861.179 9     57561.380 9     -1401.561 9        54.315               
G18  20679769.228 9     60360.100 9     -1478.716 9        55.677               
G23  25069537.291 7   -111523.625 7      2707.746 7        44.025               
G25  24693405.597 7    -44179.602 7      1074.347 7        45.542               
> 2020 02 06 15 06 51.3000000  0  9                                             
G01  21037139.845 8    -20068.143 8       470.797 8        52.227               
G03  23065570.381 8   -111344.914 8      2809.376 8        49.460               
G08  25668139.540 7    113421.734 7     -2747.616 7        43.299               
G10  24043333.065 7    116261.126 7     -2818.544 7        46.575               
G11  22013782.249 8     92306.218 8     -2246.912 8        50.715               
G14  21020887.379 9     57700.998 9     -1403.592 9        54.223               
G18  20679795.124 9     60507.298 9     -1478.392 9        55.751               
G23  25069484.563 7   -111794.879 7      2706.007 7        44.099               
G25  24693384.194 7    -44287.810 7      1075.157 7        45.424               
> 2020 02 06 15 06 51.4000000  0  9                                             
G01  21037130.920 8    -20115.383 8       472.143 8        52.151               
G03  23065516.962 8   -111626.176 8      2813.251 8        49.243               
G08  25668191.780 7    113696.340 7     -2747.285 7        43.287               
G10  24043387.182 7    116543.024 7     -2815.656 7        46.860               
G11  22013824.483 8     92530.940 8     -2247.064 8        51.086               
G14  21020914.156 9     57841.308 9     -1403.899 9        54.218               
G18  20679823.938 9     60655.196 9     -1478.446 9        55.694               
G23  25069432.270 7   -112065.445 7      2700.999 7        44.117               
G25  24693364.029 7    -44395.324 7      1072.590 7        45.299               
> 2020 02 06 15 06 51.5000000  0  9                                             
G01  21037122.134 8    -20162.588 8       470.514 8        52.092               
G03  23065462.664 8   -111907.402 8      2813.398 8        49.207               
G08  25668245.090 7    113970.966 7     -2743.419 7        43.370               
G10  24043441.438 7    116824.949 7     -2819.546 7        46.936               
G11  22013867.750 8     92755.697 8     -2247.420 8        51.352               
G14  21020940.769 9     57981.650 9     -1403.523 9        54.181               
G18  20679852.034 9     60803.121 9     -1478.990 9        55.610               
G23  25069381.153 7   -112335.989 7      2708.808 7        44.229               
G25  24693343.951 7    -44502.806 7      1075.807 7        45.268               
> 2020 02 06 15 06 51.6000000  0  9                                             
G01  21037114.348 8    -20209.367 8       471.057 8        51.968               
G03  23065410.401 8   -112188.210 8      2812.270 8        49.298               
G08  25668298.862 7    114246.006 7     -2741.216 7        43.454               
G10  24043494.728 7    117107.293 7     -2820.523 7        47.088               
G11  22013910.568 8     92980.878 8     -2247.273 8        51.587               
G14  21020967.684 9     58122.408 9     -1402.925 9        54.186               
G18  20679881.594 9     60951.470 9     -1479.181 9        55.691               
G23  25069329.784 7   -112606.112 7      2701.392 7        44.269               
G25  24693324.835 7    -44609.863 7      1073.188 7        45.224               
> 2020 02 06 15 06 51.7000000  0  9                                             
G01  21037105.923 8    -20256.275 8       472.372 8        51.802               
G03  23065356.965 8   -112469.157 8      2811.394 8        49.352               
G08  25668351.210 7    114520.923 7     -2746.085 7        43.632               
G10  24043548.613 7    117389.513 7     -2818.818 7        47.301               
G11  22013953.517 8     93205.929 8     -2248.475 8        51.737               
G14  21020995.248 9     58263.044 9     -1403.708 9        54.150               
G18  20679909.461 9     61099.703 9     -1478.835 9        55.705               
G23  25069278.849 7   -112876.357 7      2704.009 7        44.146               
G25  24693304.510 7    -44717.045 7      1072.904 7        45.133               
> 2020 02 06 15 06 51.8000000  0  9                                             
G01  21037096.330 8    -20304.107 8       472.948 8        51.691               
G03  23065303.325 8   -112751.029 8      2813.072 8        49.446               
G08  25668402.533 7    114794.891 7     -2742.333 7        43.899               
G10  24043601.937 7    117670.798 7     -2818.233 7        47.562               
G11  22013996.316 8     93430.055 8     -2248.838 8        52.028               
G14  21021021.179 9     58402.747 9     -1403.037 9        54.033               
G18  20679937.751 9     61247.010 9     -1479.483 9        55.882               
G23  25069227.586 7   -113147.533 7      2704.291 7        43.939               
G25  24693282.641 7    -44825.155 7      1076.427 7        45.113               
> 2020 02 06 15 06 51.9000000  0  9                                             
G01  21037087.113 8    -20351.484 8       471.412 8        51.696               
G03  23065249.203 8   -113032.447 8      2810.831 8        49.410               
G08  25668452.926 7    115069.314 7     -2749.188 7        44.059               
G10  24043655.744 7    117952.537 7     -2818.857 7        47.666               
G11  22014038.222 8     93654.634 8     -2247.753 8        52.286               
G14  21021047.628 8     58542.902 8     -1402.395 8        53.910               
G18  20679964.432 9     61394.764 9     -1478.981 9        56.152               
G23  25069175.608 7   -113418.269 7      2706.072 7        43.780               
G25  24693261.755 7    -44932.810 7      1076.537 7        45.179               
> 2020 02 06 15 06 52.0000000  0  9                                             
G01  21037078.411 8    -20398.900 8       471.991 8        51.747               
G03  23065195.792 8   -113313.916 8      2812.703 8        49.449               
G08  25668505.622 7    115343.689 7     -2746.652 7        44.128               
G10  24043708.904 7    118234.227 7     -2817.023 7        47.845               
G11  22014080.894 8     93879.172 8     -2247.052 8        52.353               
G14  21021073.377 8     58683.013 8     -1404.012 8        53.699               
G18  20679992.541 9     61542.481 9     -1479.715 9        56.472               
G23  25069123.806 7   -113689.041 7      2706.860 7        43.679               
G25  24693241.260 7    -45040.508 7      1074.780 7        45.292               
> 2020 02 06 15 06 52.1000000  0  9                                             
G01  21037070.420 8    -20446.031 8       472.009 8        51.771               
G03  23065141.896 8   -113595.105 8      2812.346 8        49.480               
G08  25668557.439 7    115618.349 7     -2746.742 7        44.346               
G10  24043763.401 7    118516.200 7     -2818.343 7        47.815               
G11  22014124.044 8     94103.995 8     -2248.129 8        52.345               
G14  21021100.821 8     58823.407 8     -1404.070 8        53.540               
G18  20680020.752 9     61690.490 9     -1479.562 9        56.696               
G23  25069072.250 7   -113959.535 7      2704.737 7        43.563               
G25  24693221.815 7    -45147.917 7      1072.843 7        45.445               
> 2020 02 06 15 06 52.2000000  0  9                                             
G01  21037062.562 8    -20492.565 8       472.038 8        51.821               
G03  23065089.830 8   -113875.699 8      2812.887 8        49.360               
G08  25668609.227 7    115893.591 7     -2745.343 7        44.592               
G10  24043817.227 7    118798.770 7     -2819.726 7        47.697               
G11  22014166.844 8     94329.412 8     -2247.672 8        52.435               
G14  21021128.307 8     58964.393 8     -1404.097 8        53.463               
G18  20680051.366 9     61839.094 9     -1479.745 9        56.795               
G23  25069022.382 7   -114229.442 7      2706.188 7        43.514               
G25  24693202.270 7    -45254.740 7      1077.219 7        45.413               
> 2020 02 06 15 06 52.3000000  0  9                                             
G01  21037052.834 8    -20540.143 8       470.716 8        51.763               
G03  23065035.304 8   -114157.347 8      2811.629 8        49.221               
G08  25668660.630 7    116167.770 7     -2747.210 7        44.657               
G10  24043870.631 7    119080.283 7     -2821.917 7        47.631               
G11  22014209.634 8     94553.778 8     -2248.320 8        52.606               
G14  21021154.354 8     59104.327 8     -1402.132 8        53.462               
G18  20680077.698 9     61986.644 9     -1479.043 9        56.873               
G23  25068969.983 7   -114500.396 7      2704.466 7        43.553               
G25  24693179.963 7    -45362.600 7      1073.425 7        45.224               
> 2020 02 06 15 06 52.4000000  0  9                                             
G01  21037041.854 8    -20588.040 8       472.361 8        51.759               
G03  23064981.081 8   -114439.316 8      2811.414 8        49.045               
G08  25668711.494 7    116441.645 7     -2743.977 7        44.659               
G10  24043923.693 7    119361.477 7     -2817.728 7        47.657               
G11  22014250.849 8     94777.832 8     -2249.105 8        52.744               
G14  21021179.683 8     59243.949 8     -1404.128 8        53.554               
G18  20680103.921 9     62133.889 9     -1479.148 9        56.815               
G23  25068919.137 7   -114771.660 7      2705.077 7        43.634               
G25  24693158.154 7    -45470.782 7      1074.089 7        45.043               
> 2020 02 06 15 06 52.5000000  0  9                                             
G01  21037032.508 8    -20635.243 8       471.286 8        51.716               
G03  23064927.330 8   -114720.606 8      2815.441 8        48.844               
G08  25668764.904 7    116716.189 7     -2744.271 7        44.738               
G10  24043977.210 7    119643.355 7     -2817.215 7        47.647               
G11  22014294.038 8     95002.579 8     -2249.014 8        52.668               
G14  21021206.593 8     59384.252 8     -1403.440 8        53.743               
G18  20680131.600 9     62281.820 9     -1480.272 9        56.689               
G23  25068867.119 7   -115042.268 7      2705.586 7        43.781               
G25  24693138.390 7    -45578.273 7      1073.473 7        44.945               
> 2020 02 06 15 06 52.6000000  0  9                                             
G01  21037023.372 8    -20681.858 8       471.756 8        51.697               
G03  23064874.379 8   -115001.311 8      2809.644 8        48.659               
G08  25668820.079 7    116991.324 7     -2745.006 7        44.827               
G10  24044031.473 7    119925.820 7     -2820.598 7        47.637               
G11  22014338.294 8     95227.899 8     -2248.492 8        52.564               
G14  21021234.232 8     59525.138 8     -1403.443 8        53.969               
G18  20680162.883 9     62430.334 9     -1480.472 9        56.561               
G23  25068815.187 7   -115312.276 7      2706.466 7        44.036               
G25  24693118.800 7    -45685.188 7      1078.035 7        44.894               
> 2020 02 06 15 06 52.7000000  0  9                                             
G01  21037013.948 8    -20729.487 8       471.314 8        51.698               
G03  23064820.766 8   -115283.033 8      2814.395 8        48.468               
G08  25668871.266 7    117265.409 7     -2745.801 7        44.783               
G10  24044084.859 7    120207.268 7     -2817.629 7        47.664               
G11  22014380.083 8     95452.213 8     -2247.249 8        52.541               
G14  21021260.403 9     59665.006 9     -1403.820 9        54.187               
G18  20680190.127 9     62577.838 9     -1479.664 9        56.388               
G23  25068761.037 7   -115583.304 7      2707.357 7        44.176               
G25  24693098.602 7    -45793.108 7      1076.156 7        44.750               
> 2020 02 06 15 06 52.8000000  0  9                                             
G01  21037005.427 8    -20776.568 8       472.781 8        51.704               
G03  23064767.161 8   -115564.205 8      2813.336 8        48.327               
G08  25668923.536 7    117540.052 7     -2743.196 7        44.801               
G10  24044138.254 7    120489.259 7     -2823.866 7        47.546               
G11  22014423.186 8     95677.074 8     -2247.957 8        52.528               
G14  21021286.709 9     59805.427 9     -1403.844 9        54.343               
G18  20680218.023 9     62725.893 9     -1478.616 9        56.136               
G23  25068708.451 7   -115853.786 7      2704.274 7        44.361               
G25  24693077.948 7    -45900.471 7      1070.315 7        44.777               
> 2020 02 06 15 06 52.9000000  0  9                                             
G01  21036995.819 8    -20824.368 8       471.512 8        51.890               
G03  23064713.327 8   -115846.113 8      2814.048 8        48.220               
G08  25668974.665 7    117813.976 7     -2747.124 7        44.772               
G10  24044191.062 7    120770.525 7     -2819.488 7        47.395               
G11  22014465.398 8     95901.213 8     -2248.629 8        52.537               
G14  21021312.463 9     59945.117 9     -1403.820 9        54.354               
G18  20680244.403 9     62873.230 9     -1479.563 9        56.002               
G23  25068657.548 7   -116124.993 7      2710.427 7        44.501               
G25  24693055.688 7    -46008.569 7      1079.177 7        44.833               
> 2020 02 06 15 06 53.0000000  0  9                                             
G01  21036987.467 8    -20871.021 8       470.232 8        52.154               
G03  23064659.838 8   -116126.881 8      2813.126 8        48.287               
G08  25669026.763 7    118089.029 7     -2745.830 7        44.938               
G10  24044245.913 7    121052.927 7     -2818.126 7        47.220               
G11  22014507.901 8     96126.496 8     -2248.636 8        52.501               
G14  21021340.492 9     60085.952 9     -1402.972 9        54.388               
G18  20680273.325 9     63021.713 9     -1480.235 9        55.971               
G23  25068607.042 7   -116395.064 7      2705.692 7        44.601               
G25  24693035.900 7    -46115.515 7      1073.925 7        44.677               
> 2020 02 06 15 06 53.1000000  0  9                                             
G01  21036978.466 8    -20918.016 8       470.254 8        52.338               
G03  23064606.808 8   -116407.990 8      2814.450 8        48.319               
G08  25669079.589 7    118363.747 7     -2744.674 7        44.924               
G10  24044299.186 7    121334.986 7     -2817.668 7        47.061               
G11  22014551.292 8     96351.433 8     -2247.465 8        52.436               
G14  21021367.462 9     60226.442 9     -1404.460 9        54.433               
G18  20680302.118 9     63169.850 9     -1480.670 9        55.940               
G23  25068554.137 7   -116665.482 7      2703.678 7        44.849               
G25  24693015.910 7    -46222.811 7      1075.649 7        44.606               
> 2020 02 06 15 06 53.2000000  0  9                                             
G01  21036969.851 8    -20964.979 8       471.822 8        52.459               
G03  23064553.073 8   -116689.077 8      2813.230 8        48.329               
G08  25669131.032 7    118638.465 7     -2746.094 7        45.101               
G10  24044353.327 7    121617.076 7     -2820.614 7        46.941               
G11  22014594.301 8     96576.403 8     -2247.582 8        52.268               
G14  21021394.317 9     60366.957 9     -1403.670 9        54.370               
G18  20680330.724 9     63318.017 9     -1481.262 9        55.887               
G23  25068502.512 7   -116935.867 7      2701.623 7        45.020               
G25  24692996.341 7    -46330.072 7      1076.546 7        44.580               
> 2020 02 06 15 06 53.3000000  0  9                                             
G01  21036961.829 8    -21011.843 8       471.401 8        52.443               
G03  23064499.700 8   -116970.069 8      2812.376 8        48.264               
G08  25669184.390 7    118913.300 7     -2749.336 7        45.206               
G10  24044406.917 7    121899.252 7     -2823.697 7        46.937               
G11  22014636.866 8     96801.468 8     -2247.599 8        52.252               
G14  21021420.728 9     60507.568 9     -1404.566 9        54.400               
G18  20680358.743 9     63466.282 9     -1480.731 9        55.783               
G23  25068452.855 7   -117206.170 7      2705.235 7        45.110               
G25  24692976.829 7    -46437.238 7      1075.285 7        44.554               
> 2020 02 06 15 06 53.4000000  0  9                                             
G01  21036954.719 8    -21058.165 8       470.874 8        52.392               
G03  23064446.649 8   -117250.523 8      2812.549 8        48.405               
G08  25669237.803 7    119188.646 7     -2741.839 7        45.152               
G10  24044461.312 7    122181.974 7     -2825.412 7        47.048               
G11  22014680.772 8     97027.079 8     -2248.782 8        52.400               
G14  21021448.981 9     60648.719 9     -1403.677 9        54.411               
G18  20680388.140 9     63615.098 9     -1480.616 9        55.664               
G23  25068405.182 7   -117475.922 7      2707.354 7        45.229               
G25  24692956.174 7    -46543.859 7      1073.646 7        44.666               
> 2020 02 06 15 06 53.5000000  0  9                                             
G01  21036946.220 8    -21105.086 8       470.587 8        52.497               
G03  23064393.817 8   -117531.583 8      2812.555 8        48.590               
G08  25669290.309 7    119463.389 7     -2746.108 7        44.984               
G10  24044514.819 7    122464.088 7     -2817.185 7        47.147               
G11  22014723.360 8     97252.085 8     -2248.818 8        52.403               
G14  21021475.756 9     60789.267 9     -1403.794 9        54.522               
G18  20680417.130 9     63763.311 9     -1480.098 9        55.617               
G23  25068353.440 7   -117746.292 7      2704.355 7        45.228               
G25  24692934.971 7    -46651.081 7      1070.640 7        44.653               
> 2020 02 06 15 06 53.6000000  0  9                                             
G01  21036937.414 8    -21151.914 8       470.997 8        52.543               
G03  23064340.249 8   -117812.557 8      2812.994 8        48.665               
G08  25669341.847 7    119738.222 7     -2745.598 7        44.899               
G10  24044568.751 7    122746.288 7     -2818.623 7        47.281               
G11  22014766.017 8     97477.182 8     -2247.226 8        52.329               
G14  21021502.867 9     60929.903 9     -1403.290 9        54.827               
G18  20680445.188 9     63911.618 9     -1480.354 9        55.605               
G23  25068302.857 7   -118016.569 7      2702.646 7        45.239               
G25  24692914.782 7    -46758.217 7      1071.535 7        44.625               
> 2020 02 06 15 06 53.7000000  0  9                                             
G01  21036926.928 8    -21199.440 8       469.340 8        52.557               
G03  23064286.287 8   -118094.237 8      2812.377 8        48.986               
G08  25669391.758 7    120012.350 7     -2746.824 7        44.885               
G10  24044621.343 7    123027.794 7     -2821.614 7        47.497               
G11  22014808.960 8     97701.584 8     -2250.450 8        52.233               
G14  21021528.387 9     61069.840 9     -1404.035 9        54.999               
G18  20680472.138 9     64059.227 9     -1480.006 9        55.476               
G23  25068251.218 7   -118287.537 7      2702.943 7        45.088               
G25  24692894.021 7    -46866.051 7      1075.565 7        44.712               
> 2020 02 06 15 06 53.8000000  0  9                                             
G01  21036915.951 8    -21247.297 8       470.845 8        52.404               
G03  23064231.889 8   -118376.247 8      2810.896 8        49.271               
G08  25669444.037 7    120286.137 7     -2745.246 7        44.905               
G10  24044674.640 7    123308.958 7     -2817.181 7        47.634               
G11  22014850.232 8     97925.648 8     -2249.014 8        52.134               
G14  21021554.613 9     61209.442 9     -1403.751 9        55.063               
G18  20680497.596 9     64206.505 9     -1480.690 9        55.381               
G23  25068198.195 7   -118558.867 7      2709.338 7        45.019               
G25  24692873.788 7    -46974.204 7      1068.460 7        44.813               
> 2020 02 06 15 06 53.9000000  0  9                                             
G01  21036905.642 8    -21294.880 8       470.969 8        52.323               
G03  23064177.980 8   -118657.997 8      2812.681 8        49.192               
G08  25669496.181 7    120560.182 7     -2748.964 7        45.000               
G10  24044727.481 7    123590.390 7     -2820.400 7        47.829               
G11  22014892.833 8     98149.986 8     -2248.543 8        52.088               
G14  21021580.882 9     61349.309 9     -1403.808 9        55.183               
G18  20680524.044 9     64354.052 9     -1480.902 9        55.254               
G23  25068145.626 7   -118829.900 7      2705.016 7        44.993               
G25  24692853.062 7    -47082.104 7      1075.841 7        44.746               
> 2020 02 06 15 06 54.0000000  0  9                                             
G01  21036896.321 8    -21342.231 8       471.029 8        52.378               
G03  23064124.718 8   -118939.517 8      2811.273 8        49.113               
G08  25669548.721 7    120834.451 7     -2743.400 7        45.037               
G10  24044780.951 7    123872.048 7     -2820.709 7        47.942               
G11  22014935.367 8     98374.552 8     -2249.374 8        51.999               
G14  21021607.209 9     61489.405 9     -1404.591 9        55.305               
G18  20680552.765 9     64501.832 9     -1481.724 9        55.095               
G23  25068093.508 7   -119100.728 7      2703.568 7        45.036               
G25  24692831.214 7    -47189.767 7      1076.945 7        44.566               
> 2020 02 06 15 06 54.1000000  0  9                                             
G01  21036888.918 8    -21388.257 8       471.237 8        52.529               
G03  23064072.196 8   -119219.719 8      2813.758 8        49.037               
G08  25669603.807 7    121110.052 7     -2750.474 7        45.118               
G10  24044835.715 8    124155.027 8     -2819.365 8        48.065               
G11  22014979.374 8     98600.443 8     -2247.840 8        51.995               
G14  21021634.812 9     61630.825 9     -1403.835 9        55.367               
G18  20680585.103 9     64650.939 9     -1481.995 9        54.906               
G23  25068042.077 7   -119370.230 7      2703.891 7        45.107               
G25  24692811.160 7    -47296.102 7      1069.314 7        44.465               
> 2020 02 06 15 06 54.2000000  0  9                                             
G01  21036880.734 8    -21435.004 8       470.910 8        52.764               
G03  23064019.053 8   -119500.642 8      2812.363 8        48.896               
G08  25669658.772 7    121384.926 7     -2747.435 7        45.048               
G10  24044889.751 8    124437.286 8     -2822.506 8        48.442               
G11  22015023.153 8     98825.613 8     -2248.880 8        51.897               
G14  21021661.616 9     61771.519 9     -1403.491 9        55.462               
G18  20680615.409 9     64799.325 9     -1480.775 9        54.924               
G23  25067991.310 7   -119640.465 7      2704.206 7        45.082               
G25  24692791.468 7    -47403.162 7      1077.047 7        44.363               
> 2020 02 06 15 06 54.3000000  0  9                                             
G01  21036873.384 8    -21481.118 8       470.029 8        52.929               
G03  23063966.209 8   -119780.949 8      2811.670 8        48.759               
G08  25669711.784 7    121660.406 7     -2748.828 7        45.000               
G10  24044944.514 8    124720.165 8     -2817.990 8        48.800               
G11  22015066.641 8     99051.411 8     -2248.564 8        51.806               
G14  21021689.933 9     61912.841 9     -1404.266 9        55.548               
G18  20680645.763 9     64948.340 9     -1479.931 9        54.937               
G23  25067941.218 7   -119910.064 7      2706.209 7        45.289               
G25  24692772.397 7    -47509.592 7      1076.603 7        44.272               
> 2020 02 06 15 06 54.4000000  0  9                                             
G01  21036863.919 8    -21528.474 8       470.097 8        52.962               
G03  23063912.572 8   -120062.499 8      2811.701 8        48.637               
G08  25669761.501 7    121934.646 7     -2746.292 7        44.825               
G10  24044997.733 8    125001.801 8     -2820.044 8        48.810               
G11  22015108.888 8     99275.966 8     -2247.514 8        51.815               
G14  21021716.223 9     62052.918 9     -1403.409 9        55.655               
G18  20680672.911 9     65096.117 9     -1481.093 9        55.045               
G23  25067889.117 7   -120180.917 7      2704.701 7        45.322               
G25  24692752.371 7    -47617.267 7      1070.971 7        44.179               
> 2020 02 06 15 06 54.5000000  0  9                                             
G01  21036854.674 8    -21576.044 8       469.919 8        53.008               
G03  23063857.904 8   -120344.266 8      2811.211 8        48.428               
G08  25669812.832 7    122208.655 7     -2747.901 7        44.779               
G10  24045051.226 8    125283.221 8     -2820.013 8        48.702               
G11  22015151.768 8     99500.309 8     -2248.853 8        51.986               
G14  21021742.252 9     62192.779 9     -1404.119 9        55.713               
G18  20680698.976 9     65243.682 9     -1481.215 9        55.127               
G23  25067836.487 7   -120451.981 7      2707.076 7        45.254               
G25  24692731.332 7    -47725.152 7      1076.141 7        44.353               
> 2020 02 06 15 06 54.6000000  0  9                                             
G01  21036845.880 8    -21623.708 8       469.403 8        53.146               
G03  23063804.151 8   -120626.134 8      2809.340 8        48.509               
G08  25669862.469 7    122482.564 7     -2746.462 7        44.669               
G10  24045103.454 8    125564.546 8     -2818.658 8        48.659               
G11  22015193.310 8     99724.553 8     -2249.324 8        52.158               
G14  21021767.551 9     62332.540 9     -1404.416 9        55.761               
G18  20680723.757 9     65391.151 9     -1481.007 9        55.313               
G23  25067784.074 7   -120723.149 7      2704.507 7        45.135               
G25  24692709.690 7    -47833.134 7      1074.413 7        44.545               
> 2020 02 06 15 06 54.7000000  0  9                                             
G01  21036837.854 8    -21670.692 8       470.004 8        53.291               
G03  23063749.933 8   -120907.330 8      2810.965 8        48.493               
G08  25669914.787 7    122757.157 7     -2747.935 7        44.626               
G10  24045158.095 8    125846.538 8     -2820.128 8        48.678               
G11  22015236.765 8     99949.475 8     -2248.602 8        52.154               
G14  21021795.192 9     62472.978 9     -1404.035 9        55.854               
G18  20680751.630 9     65539.303 9     -1481.613 9        55.541               
G23  25067730.732 7   -120993.636 7      2704.535 7        45.153               
G25  24692689.352 7    -47940.444 7      1076.055 7        44.617               
> 2020 02 06 15 06 54.8000000  0  9                                             
G01  21036828.126 8    -21718.283 8       469.553 8        53.409               
G03  23063696.301 8   -121189.137 8      2813.977 8        48.535               
G08  25669965.760 7    123031.123 7     -2747.261 7        44.623               
G10  24045210.623 8    126127.914 8     -2818.231 8        48.734               
G11  22015278.911 8    100173.789 8     -2249.171 8        52.003               
G14  21021821.149 9     62612.801 9     -1404.367 9        55.975               
G18  20680777.676 9     65686.842 9     -1482.117 9        55.709               
G23  25067679.816 7   -121264.752 7      2706.746 7        45.093               
G25  24692668.546 7    -48048.350 7      1073.618 7        44.808               
> 2020 02 06 15 06 54.9000000  0  9                                             
G01  21036817.749 8    -21765.649 8       469.795 8        53.465               
G03  23063642.450 8   -121470.724 8      2812.827 8        48.579               
G08  25670017.836 7    123305.312 7     -2745.838 7        44.480               
G10  24045264.915 8    126409.516 8     -2819.905 8        48.779               
G11  22015320.390 8    100398.324 8     -2252.214 8        51.792               
G14  21021847.475 9     62752.848 9     -1404.108 9        55.964               
G18  20680806.361 9     65834.606 9     -1481.841 9        55.686               
G23  25067629.127 7   -121535.638 7      2705.542 7        45.282               
G25  24692648.180 7    -48156.040 7      1073.014 7        45.085               
> 2020 02 06 15 06 55.0000000  0  9                                             
G01  21036808.559 8    -21812.005 8       470.612 8        53.529               
G03  23063589.462 8   -121751.307 8      2813.616 8        48.610               
G08  25670072.009 7    123580.501 7     -2745.898 7        44.363               
G10  24045317.658 8    126692.118 8     -2817.978 8        48.742               
G11  22015364.717 8    100623.869 8     -2248.474 8        51.549               
G14  21021874.344 9     62893.903 9     -1403.488 9        55.925               
G18  20680835.160 9     65983.385 9     -1481.381 9        55.706               
G23  25067577.533 7   -121805.513 7      2701.136 7        45.375               
G25  24692629.144 7    -48262.721 7      1074.126 7        45.214               
> 2020 02 06 15 06 55.1000000  0  9                                             
G01  21036800.539 8    -21857.867 8       469.782 8        53.510               
G03  23063536.769 8   -122031.400 8      2812.712 8        48.512               
G08  25670126.155 7    123856.182 7     -2746.415 7        44.384               
G10  24045372.537 8    126975.220 8     -2821.314 8        48.527               
G11  22015408.106 8    100849.908 8     -2248.868 8        51.265               
G14  21021902.955 9     63035.448 9     -1404.515 9        55.851               
G18  20680866.058 9     66132.655 9     -1482.330 9        55.526               
G23  25067528.897 7   -122074.912 7      2706.534 7        45.298               
G25  24692608.669 7    -48368.912 7      1073.562 7        45.290               
> 2020 02 06 15 06 55.2000000  0  9                                             
G01  21036790.529 8    -21905.341 8       469.236 8        53.453               
G03  23063482.587 8   -122313.120 8      2815.875 8        48.490               
G08  25670177.936 7    124130.234 7     -2746.707 7        44.303               
G10  24045426.427 8    127256.699 8     -2819.849 8        48.319               
G11  22015450.113 8    101074.332 8     -2248.440 8        51.133               
G14  21021929.148 9     63175.376 9     -1403.907 9        55.812               
G18  20680893.538 9     66280.311 9     -1480.890 9        55.337               
G23  25067477.520 7   -122345.921 7      2703.871 7        45.165               
G25  24692587.044 7    -48476.716 7      1075.882 7        45.486               
> 2020 02 06 15 06 55.3000000  0  9                                             
G01  21036780.743 8    -21953.069 8       468.959 8        53.371               
G03  23063428.469 8   -122595.091 8      2813.002 8        48.446               
G08  25670230.424 7    124404.024 7     -2746.162 7        44.161               
G10  24045480.541 8    127537.921 8     -2818.605 8        48.239               
G11  22015492.559 8    101298.503 8     -2249.627 8        51.025               
G14  21021954.976 9     63315.046 9     -1404.962 9        55.867               
G18  20680922.314 9     66427.715 9     -1482.415 9        55.218               
G23  25067425.921 7   -122617.194 7      2701.514 7        45.129               
G25  24692565.662 7    -48584.767 7      1076.013 7        45.610               
> 2020 02 06 15 06 55.4000000  0  9                                             
G01  21036771.707 8    -22000.267 8       469.841 8        53.248               
G03  23063375.314 8   -122876.543 8      2812.432 8        48.417               
G08  25670281.017 7    124678.339 7     -2744.674 7        44.053               
G10  24045533.581 8    127819.667 8     -2819.532 8        48.268               
G11  22015534.556 8    101523.199 8     -2250.141 8        50.931               
G14  21021980.820 9     63455.241 9     -1404.868 9        55.858               
G18  20680950.231 9     66575.646 9     -1481.719 9        55.133               
G23  25067373.553 7   -122887.935 7      2705.314 7        45.099               
G25  24692545.672 7    -48692.301 7      1072.043 7        45.635               
> 2020 02 06 15 06 55.5000000  0  9                                             
G01  21036763.734 8    -22046.630 8       469.983 8        53.342               
G03  23063323.186 8   -123157.164 8      2813.348 8        48.451               
