$GPRMC,150631.00,A,3932.0401198,N,12220.0501700,W,1.78,0.00,060220,0.0,E,A*21
$GPGGA,150631.00,3932.0401198,N,12220.0501700,W,1,06,1.0,84.707,M,0.000,M,0.0,*55
$GPGSA,A,3,01,03,10,11,14,18,,,,,,,2.3,1.4,1.9,1*2C
$GPGSV,2,1,06,01,57,283,54,03,26,303,50,10,16,107,46,11,38,235,50,1*60
$GPGSV,2,2,06,14,63,038,54,18,60,230,54,,,,,,,,,1*67
$GPRMC,150632.00,A,3932.0402514,N,12220.0507613,W,2.02,91.30,060220,0.0,E,A*11
$GPGGA,150632.00,3932.0402514,N,12220.0507613,W,1,06,1.0,83.233,M,0.000,M,0.0,*55
$GPGSA,A,3,01,03,10,11,14,18,,,,,,,2.3,1.4,1.9,1*2C
$GPGSV,2,1,06,01,57,283,54,03,27,303,50,10,16,107,46,11,38,235,50,1*61
$GPGSV,2,2,06,14,63,038,55,18,60,230,54,,,,,,,,,1*66
$GPRMC,150633.00,A,3932.0395579,N,12220.0502118,W,1.43,91.30,060220,0.0,E,A*1D
$GPGGA,150633.00,3932.0395579,N,12220.0502118,W,1,06,1.0,82.518,M,0.000,M,0.0,*50
$GPGSA,A,3,01,03,10,11,14,18,,,,,,,2.3,1.4,1.9,1*2C
$GPGSV,2,1,06,01,57,283,52,03,27,303,50,10,16,107,46,11,38,235,50,1*67
$GPGSV,2,2,06,14,63,038,54,18,60,230,55,,,,,,,,,1*66
$GPRMC,150634.00,A,3932.0397506,N,12220.0500992,W,1.11,91.30,060220,0.0,E,A*1F
$GPGGA,150634.00,3932.0397506,N,12220.0500992,W,1,06,1.0,84.172,M,0.000,M,0.0,*5B
$GPGSA,A,3,01,03,10,11,14,18,,,,,,,2.3,1.4,1.9,1*2C
$GPGSV,2,1,06,01,57,283,52,03,27,303,50,10,16,107,48,11,38,235,52,1*6B
$GPGSV,2,2,06,14,63,038,54,18,60,230,56,,,,,,,,,1*65
$GPRMC,150635.00,A,3932.0396842,N,12220.0507215,W,0.73,91.30,060220,0.0,E,A*14
$GPGGA,150635.00,3932.0396842,N,12220.0507215,W,1,06,1.0,84.672,M,0.000,M,0.0,*52
$GPGSA,A,3,01,03,10,11,14,18,,,,,,,2.3,1.4,1.9,1*2C
$GPGSV,2,1,06,01,57,283,52,03,27,303,48,10,16,107,47,11,38,235,52,1*6D
$GPGSV,2,2,06,14,63,038,54,18,60,230,56,,,,,,,,,1*65
$GPRMC,150636.00,A,3932.0389926,N,12220.0504752,W,0.42,91.30,060220,0.0,E,A*1D
$GPGGA,150636.00,3932.0389926,N,12220.0504752,W,1,06,1.0,86.264,M,0.000,M,0.0,*58
$GPGSA,A,3,01,03,10,11,14,18,,,,,,,2.3,1.4,1.9,1*2C
$GPGSV,2,1,06,01,57,283,52,03,27,303,49,10,16,107,48,11,38,235,52,1*63
$GPGSV,2,2,06,14,63,038,55,18,60,230,55,,,,,,,,,1*67
$GPRMC,150637.00,A,3932.0395293,N,12220.0500708,W,0.80,91.30,060220,0.0,E,A*11
$GPGGA,150637.00,3932.0395293,N,12220.0500708,W,1,06,1.0,85.523,M,0.000,M,0.0,*5D
$GPGSA,A,3,01,03,10,11,14,18,,,,,,,2.3,1.4,1.9,1*2C
$GPGSV,2,1,06,01,57,283,54,03,27,303,48,10,16,107,49,11,38,235,52,1*65
$GPGSV,2,2,06,14,63,038,56,18,60,230,56,,,,,,,,,1*67
$GPRMC,150638.00,A,3932.0405825,N,12220.0503944,W,0.75,91.30,060220,0.0,E,A*18
$GPGGA,150638.00,3932.0405825,N,12220.0503944,W,1,06,1.0,80.769,M,0.000,M,0.0,*57
$GPGSA,A,3,01,03,10,11,14,18,,,,,,,2.3,1.4,1.9,1*2C
$GPGSV,2,1,06,01,57,283,54,03,27,303,48,10,16,107,48,11,38,235,51,1*67
$GPGSV,2,2,06,14,63,038,56,18,60,230,56,,,,,,,,,1*67
$GPRMC,150639.00,A,3932.0406576,N,12220.0502618,W,1.73,91.30,060220,0.0,E,A*11
$GPGGA,150639.00,3932.0406576,N,12220.0502618,W,1,06,1.0,80.836,M,0.000,M,0.0,*5C
$GPGSA,A,3,01,03,10,11,14,18,,,,,,,2.3,1.4,1.9,1*2C
$GPGSV,2,1,06,01,57,283,55,03,27,303,48,10,16,107,47,11,38,235,51,1*69
$GPGSV,2,2,06,14,63,038,55,18,60,230,56,,,,,,,,,1*64
$GPRMC,150640.00,A,3932.0402002,N,12220.0502936,W,1.10,91.30,060220,0.0,E,A*1B
$GPGGA,150640.00,3932.0402002,N,12220.0502936,W,1,06,1.0,84.060,M,0.000,M,0.0,*5C
$GPGSA,A,3,01,03,10,11,14,18,,,,,,,2.3,1.4,1.9,1*2C
$GPGSV,2,1,06,01,57,283,55,03,27,303,48,10,16,107,47,11,38,235,50,1*68
$GPGSV,2,2,06,14,63,038,55,18,60,230,55,,,,,,,,,1*67
$GPRMC,150641.00,A,3932.0404345,N,12220.0505554,W,0.26,91.30,060220,0.0,E,A*17
$GPGGA,150641.00,3932.0404345,N,12220.0505554,W,1,06,1.0,82.831,M,0.000,M,0.0,*5E
$GPGSA,A,3,01,03,10,11,14,18,,,,,,,2.3,1.4,1.9,1*2C
$GPGSV,2,1,06,01,57,283,54,03,27,303,49,10,16,107,48,11,38,235,51,1*66
$GPGSV,2,2,06,14,63,038,56,18,60,230,56,,,,,,,,,1*67
$GPRMC,150642.00,A,3932.0401907,N,12220.0503301,W,1.16,91.30,060220,0.0,E,A*1F
$GPGGA,150642.00,3932.0401907,N,12220.0503301,W,1,06,1.0,81.245,M,0.000,M,0.0,*5E
$GPGSA,A,3,01,03,10,11,14,18,,,,,,,2.3,1.4,1.9,1*2C
$GPGSV,2,1,06,01,57,283,55,03,27,303,49,10,16,107,48,11,38,235,52,1*64
$GPGSV,2,2,06,14,63,038,56,18,60,230,56,,,,,,,,,1*67
$GPRMC,150643.00,A,3932.0403787,N,12220.0502031,W,0.37,91.30,060220,0.0,E,A*19
$GPGGA,150643.00,3932.0403787,N,12220.0502031,W,1,06,1.0,82.053,M,0.000,M,0.0,*5C
$GPGSA,A,3,01,03,10,11,14,18,,,,,,,2.3,1.4,1.9,1*2C
$GPGSV,2,1,06,01,57,283,55,03,27,303,48,10,16,107,47,11,38,235,51,1*69
$GPGSV,2,2,06,14,63,038,54,18,60,230,56,,,,,,,,,1*65
$GPRMC,150644.00,A,3932.0397958,N,12220.0504193,W,0.30,91.30,060220,0.0,E,A*10
$GPGGA,150644.00,3932.0397958,N,12220.0504193,W,1,06,1.0,84.314,M,0.000,M,0.0,*54
$GPGSA,A,3,01,03,10,11,14,18,,,,,,,2.3,1.4,1.9,1*2C
$GPGSV,2,1,06,01,57,283,55,03,27,303,49,10,16,107,48,11,38,235,51,1*67
$GPGSV,2,2,06,14,63,038,55,18,60,230,54,,,,,,,,,1*66
$GPRMC,150645.00,A,3932.0398465,N,12220.0501457,W,1.82,91.30,060220,0.0,E,A*1D
$GPGGA,150645.00,3932.0398465,N,12220.0501457,W,1,06,1.0,84.487,M,0.000,M,0.0,*5C
$GPGSA,A,3,01,03,10,11,14,18,,,,,,,2.3,1.4,1.9,1*2C
$GPGSV,2,1,06,01,57,283,54,03,27,303,49,10,16,107,47,11,38,235,50,1*68
$GPGSV,2,2,06,14,63,038,54,18,60,230,55,,,,,,,,,1*66
$GPRMC,150646.00,A,3932.0396100,N,12220.0503818,W,0.43,91.30,060220,0.0,E,A*1F
$GPGGA,150646.00,3932.0396100,N,12220.0503818,W,1,06,1.0,82.319,M,0.000,M,0.0,*54
$GPGSA,A,3,01,03,10,11,14,18,,,,,,,2.3,1.4,1.9,1*2C
$GPGSV,2,1,06,01,57,283,53,03,27,303,49,10,16,107,46,11,38,235,49,1*66
$GPGSV,2,2,06,14,63,038,53,18,60,230,56,,,,,,,,,1*62
$GPRMC,150647.00,A,3932.0400460,N,12220.0502033,W,0.34,91.30,060220,0.0,E,A*15
$GPGGA,150647.00,3932.0400460,N,12220.0502033,W,1,06,1.0,82.192,M,0.000,M,0.0,*5F
$GPGSA,A,3,01,03,10,11,14,18,,,,,,,2.3,1.4,1.9,1*2C
$GPGSV,2,1,06,01,57,283,52,03,27,303,51,10,16,107,47,11,38,235,50,1*67
$GPGSV,2,2,06,14,63,038,54,18,60,230,55,,,,,,,,,1*66
$GPRMC,150648.00,A,3932.0396660,N,12220.0504995,W,0.22,91.30,060220,0.0,E,A*14
$GPGGA,150648.00,3932.0396660,N,12220.0504995,W,1,06,1.0,84.973,M,0.000,M,0.0,*58
$GPGSA,A,3,01,03,10,11,14,18,,,,,,,2.3,1.4,1.9,1*2C
$GPGSV,2,1,06,01,57,283,53,03,27,303,50,10,16,107,47,11,38,235,49,1*6F
$GPGSV,2,2,06,14,63,038,55,18,60,230,55,,,,,,,,,1*67
$GPRMC,150649.00,A,3932.0400216,N,12220.0504645,W,0.96,91.30,060220,0.0,E,A*15
$GPGGA,150649.00,3932.0400216,N,12220.0504645,W,1,06,1.0,84.440,M,0.000,M,0.0,*5B
$GPGSA,A,3,01,03,10,11,14,18,,,,,,,2.3,1.4,1.9,1*2C
$GPGSV,2,1,06,01,57,283,52,03,27,303,48,10,16,107,48,11,38,235,49,1*68
$GPGSV,2,2,06,14,63,038,55,18,60,230,55,,,,,,,,,1*67
$GPRMC,150650.00,A,3932.0396121,N,12220.0499178,W,0.50,91.30,060220,0.0,E,A*14
$GPGGA,150650.00,3932.0396121,N,12220.0499178,W,1,06,1.0,83.988,M,0.000,M,0.0,*5E
$GPGSA,A,3,01,03,10,11,14,18,,,,,,,2.3,1.4,1.9,1*2C
$GPGSV,2,1,06,01,57,283,52,03,27,303,49,10,16,107,48,11,38,235,50,1*61
$GPGSV,2,2,06,14,63,038,55,18,60,230,54,,,,,,,,,1*66
$GPRMC,150651.00,A,3932.0397632,N,12220.0503249,W,0.79,91.30,060220,0.0,E,A*19
$GPGGA,150651.00,3932.0397632,N,12220.0503249,W,1,06,1.0,84.237,M,0.000,M,0.0,*50
$GPGSA,A,3,01,03,10,11,14,18,,,,,,,2.3,1.4,1.9,1*2C
$GPGSV,2,1,06,01,57,283,53,03,27,303,50,10,16,107,48,11,38,235,50,1*68
$GPGSV,2,2,06,14,63,038,55,18,60,230,56,,,,,,,,,1*64
$GPRMC,150652.00,A,3932.0393734,N,12220.0505429,W,1.38,91.30,060220,0.0,E,A*1B
$GPGGA,150652.00,3932.0393734,N,12220.0505429,W,1,06,1.0,82.805,M,0.000,M,0.0,*5B
$GPGSA,A,3,01,03,10,11,14,18,,,,,,,2.3,1.4,1.9,1*2C
$GPGSV,2,1,06,01,57,283,55,03,27,303,50,10,16,107,47,11,38,235,50,1*61
$GPGSV,2,2,06,14,63,038,55,18,60,230,55,,,,,,,,,1*67
$GPRMC,150653.00,A,3932.0398477,N,12220.0501664,W,0.91,91.30,060220,0.0,E,A*18
$GPGGA,150653.00,3932.0398477,N,12220.0501664,W,1,06,1.0,84.256,M,0.000,M,0.0,*50
$GPGSA,A,3,01,03,10,11,14,18,,,,,,,2.3,1.4,1.9,1*2C
$GPGSV,2,1,06,01,57,283,54,03,27,303,48,10,16,107,46,11,38,235,50,1*68
$GPGSV,2,2,06,14,63,038,55,18,60,230,55,,,,,,,,,1*67
$GPRMC,150654.00,A,3932.0401500,N,12220.0505879,W,1.29,91.30,060220,0.0,E,A*1D
$GPGGA,150654.00,3932.0401500,N,12220.0505879,W,1,06,1.0,83.656,M,0.000,M,0.0,*54
$GPGSA,A,3,01,03,10,11,14,18,,,,,,,2.3,1.4,1.9,1*2C
$GPGSV,2,1,06,01,57,283,55,03,27,303,48,10,16,107,47,11,38,235,50,1*68
$GPGSV,2,2,06,14,63,038,54,18,60,230,56,,,,,,,,,1*65
$GPRMC,150655.00,A,3932.0397165,N,12220.0501694,W,0.35,91.30,060220,0.0,E,A*16
$GPGGA,150655.00,3932.0397165,N,12220.0501694,W,1,06,1.0,83.321,M,0.000,M,0.0,*56
$GPGSA,A,3,01,03,10,11,14,18,,,,,,,2.3,1.4,1.9,1*2C
$GPGSV,2,1,06,01,57,283,55,03,27,303,49,10,16,107,47,11,38,235,50,1*69
$GPGSV,2,2,06,14,63,038,55,18,60,230,56,,,,,,,,,1*64
$GPRMC,150656.00,A,3932.0396882,N,12220.0504043,W,1.45,91.30,060220,0.0,E,A*1B
$GPGGA,150656.00,3932.0396882,N,12220.0504043,W,1,06,1.0,82.841,M,0.000,M,0.0,*51
$GPGSA,A,3,01,03,10,11,14,18,,,,,,,2.3,1.4,1.9,1*2C
$GPGSV,2,1,06,01,57,283,54,03,27,303,49,10,16,107,48,11,38,235,50,1*67
$GPGSV,2,2,06,14,63,038,54,18,60,230,54,,,,,,,,,1*67
$GPRMC,150657.00,A,3932.0400624,N,12220.0503763,W,0.66,91.30,060220,0.0,E,A*12
$GPGGA,150657.00,3932.0400624,N,12220.0503763,W,1,06,1.0,83.355,M,0.000,M,0.0,*57
$GPGSA,A,3,01,03,10,11,14,18,,,,,,,2.3,1.4,1.9,1*2C
$GPGSV,2,1,06,01,57,283,53,03,27,303,49,10,16,107,49,11,38,235,50,1*61
$GPGSV,2,2,06,14,63,038,55,18,60,230,54,,,,,,,,,1*66
$GPRMC,150658.00,A,3932.0400403,N,12220.0505030,W,0.99,91.30,060220,0.0,E,A*1D
$GPGGA,150658.00,3932.0400403,N,12220.0505030,W,1,06,1.0,83.830,M,0.000,M,0.0,*50
$GPGSA,A,3,01,03,10,11,14,18,,,,,,,2.3,1.4,1.9,1*2C
$GPGSV,2,1,06,01,57,283,53,03,27,303,49,10,16,107,49,11,38,235,50,1*61
$GPGSV,2,2,06,14,63,038,56,18,60,230,54,,,,,,,,,1*65
$GPRMC,150659.00,A,3932.0395395,N,12220.0500385,W,1.40,91.30,060220,0.0,E,A*12
$GPGGA,150659.00,3932.0395395,N,12220.0500385,W,1,06,1.0,83.640,M,0.000,M,0.0,*53
$GPGSA,A,3,01,03,10,11,14,18,,,,,,,2.3,1.4,1.9,1*2C
$GPGSV,2,1,06,01,57,282,54,03,27,303,49,10,16,107,48,11,38,235,51,1*67
$GPGSV,2,2,06,14,63,038,54,18,60,230,54,,,,,,,,,1*67
$GPRMC,150700.00,A,3932.0399056,N,12220.0512698,W,0.73,91.30,060220,0.0,E,A*14
$GPGGA,150700.00,3932.0399056,N,12220.0512698,W,1,09,1.0,81.925,M,0.000,M,0.0,*55
$GPGSA,A,3,01,03,10,11,14,18,22,31,32,,,,2.0,1.1,1.7,1*27
$GPGSV,3,1,09,01,57,282,54,03,27,303,50,10,16,107,47,11,38,235,50,1*6F
$GPGSV,3,2,09,14,63,038,54,18,60,230,53,22,50,310,53,31,59,131,54,1*63
$GPGSV,3,3,09,32,37,053,50,,,,,,,,,,,,,1*5B
$GPRMC,150701.00,A,3932.0396621,N,12220.0509588,W,0.29,91.30,060220,0.0,E,A*1B
$GPGGA,150701.00,3932.0396621,N,12220.0509588,W,1,09,1.0,83.614,M,0.000,M,0.0,*5A
$GPGSA,A,3,01,03,10,11,14,18,22,31,32,,,,2.0,1.1,1.7,1*27
$GPGSV,3,1,09,01,57,282,53,03,27,303,49,10,16,107,47,11,38,235,50,1*60
$GPGSV,3,2,09,14,63,038,54,18,60,230,53,22,50,310,53,31,59,131,54,1*63
$GPGSV,3,3,09,32,37,053,50,,,,,,,,,,,,,1*5B
$GPRMC,150702.00,A,3932.0398253,N,12220.0508317,W,0.22,91.30,060220,0.0,E,A*1D
$GPGGA,150702.00,3932.0398253,N,12220.0508317,W,1,09,1.0,83.803,M,0.000,M,0.0,*5F
$GPGSA,A,3,01,03,10,11,14,18,22,31,32,,,,2.0,1.1,1.7,1*27
$GPGSV,3,1,09,01,57,282,53,03,27,303,48,10,16,107,46,11,38,235,50,1*60
$GPGSV,3,2,09,14,63,038,54,18,60,230,55,22,50,310,53,31,59,131,54,1*65
$GPGSV,3,3,09,32,37,053,50,,,,,,,,,,,,,1*5B
$GPRMC,150703.00,A,3932.0396182,N,12220.0507791,W,2.47,281.91,060220,0.0,E,A*21
$GPGGA,150703.00,3932.0396182,N,12220.0507791,W,1,09,1.0,81.633,M,0.000,M,0.0,*55
$GPGSA,A,3,01,03,10,11,14,18,22,31,32,,,,2.0,1.1,1.7,1*27
$GPGSV,3,1,09,01,57,282,54,03,27,303,49,10,16,107,46,11,38,235,50,1*66
$GPGSV,3,2,09,14,63,038,54,18,60,230,56,22,50,310,53,31,59,131,55,1*67
$GPGSV,3,3,09,32,37,053,50,,,,,,,,,,,,,1*5B
$GPRMC,150704.00,A,3932.0394003,N,12220.0510044,W,1.05,281.91,060220,0.0,E,A*20
$GPGGA,150704.00,3932.0394003,N,12220.0510044,W,1,09,1.0,83.246,M,0.000,M,0.0,*55
$GPGSA,A,3,01,03,10,11,14,18,22,31,32,,,,2.0,1.1,1.7,1*27
$GPGSV,3,1,09,01,57,282,54,03,27,303,48,10,16,107,46,11,38,235,50,1*67
$GPGSV,3,2,09,14,63,038,54,18,60,230,55,22,50,310,53,31,59,131,54,1*65
$GPGSV,3,3,09,32,37,053,50,,,,,,,,,,,,,1*5B
$GPRMC,150705.00,A,3932.0398827,N,12220.0510807,W,0.50,281.91,060220,0.0,E,A*2D
$GPGGA,150705.00,3932.0398827,N,12220.0510807,W,1,09,1.0,85.325,M,0.000,M,0.0,*5B
$GPGSA,A,3,01,03,10,11,14,18,22,31,32,,,,2.0,1.1,1.7,1*27
$GPGSV,3,1,09,01,57,282,54,03,27,303,49,10,16,107,46,11,38,235,50,1*66
$GPGSV,3,2,09,14,63,038,54,18,60,230,54,22,50,310,53,31,59,131,54,1*64
$GPGSV,3,3,09,32,37,053,50,,,,,,,,,,,,,1*5B
$GPRMC,150706.00,A,3932.0399086,N,12220.0509727,W,0.85,281.91,060220,0.0,E,A*21
$GPGGA,150706.00,3932.0399086,N,12220.0509727,W,1,09,1.0,82.956,M,0.000,M,0.0,*56
$GPGSA,A,3,01,03,10,11,14,18,22,31,32,,,,2.0,1.1,1.7,1*27
$GPGSV,3,1,09,01,57,282,54,03,27,303,49,10,16,107,46,11,38,235,50,1*66
$GPGSV,3,2,09,14,63,038,54,18,60,230,54,22,50,310,52,31,59,131,54,1*65
$GPGSV,3,3,09,32,37,053,51,,,,,,,,,,,,,1*5A
$GPRMC,150707.00,A,3932.0399265,N,12220.0507602,W,0.33,281.91,060220,0.0,E,A*2A
$GPGGA,150707.00,3932.0399265,N,12220.0507602,W,1,09,1.0,84.667,M,0.000,M,0.0,*5B
$GPGSA,A,3,01,03,10,11,14,18,22,31,32,,,,2.0,1.1,1.7,1*27
$GPGSV,3,1,09,01,57,282,54,03,27,303,48,10,16,107,46,11,38,235,50,1*67
$GPGSV,3,2,09,14,63,038,54,18,60,230,54,22,50,310,52,31,59,131,54,1*65
$GPGSV,3,3,09,32,37,053,51,,,,,,,,,,,,,1*5A
$GPRMC,150708.00,A,3932.0398569,N,12220.0506042,W,0.65,281.91,060220,0.0,E,A*2F
$GPGGA,150708.00,3932.0398569,N,12220.0506042,W,1,09,1.0,82.945,M,0.000,M,0.0,*54
$GPGSA,A,3,01,03,10,11,14,18,22,31,32,,,,2.0,1.1,1.7,1*27
$GPGSV,3,1,09,01,57,282,54,03,27,303,49,10,16,107,48,11,38,235,50,1*68
$GPGSV,3,2,09,14,63,038,54,18,60,230,54,22,50,310,52,31,59,131,54,1*65
$GPGSV,3,3,09,32,37,053,51,,,,,,,,,,,,,1*5A
$GPRMC,150709.00,A,3932.0399042,N,12220.0508928,W,0.51,281.91,060220,0.0,E,A*2F
$GPGGA,150709.00,3932.0399042,N,12220.0508928,W,1,09,1.0,83.239,M,0.000,M,0.0,*52
$GPGSA,A,3,01,03,10,11,14,18,22,31,32,,,,2.0,1.1,1.7,1*27
$GPGSV,3,1,09,01,57,282,54,03,27,303,50,10,16,107,47,11,38,235,51,1*6E
$GPGSV,3,2,09,14,63,038,54,18,60,230,56,22,50,310,52,31,59,131,52,1*61
$GPGSV,3,3,09,32,37,053,52,,,,,,,,,,,,,1*59
$GPRMC,150710.00,A,3932.0398133,N,12220.0511305,W,0.71,281.91,060220,0.0,E,A*2E
$GPGGA,150710.00,3932.0398133,N,12220.0511305,W,1,09,1.0,82.940,M,0.000,M,0.0,*55
$GPGSA,A,3,01,03,10,11,14,18,22,31,32,,,,2.0,1.1,1.7,1*27
$GPGSV,3,1,09,01,57,282,52,03,27,303,48,10,16,107,48,11,38,235,52,1*6D
$GPGSV,3,2,09,14,63,038,54,18,60,230,55,22,50,310,54,31,59,131,52,1*64
$GPGSV,3,3,09,32,37,053,52,,,,,,,,,,,,,1*59
$GPRMC,150711.00,A,3932.0398713,N,12220.0506302,W,1.04,281.91,060220,0.0,E,A*29
$GPGGA,150711.00,3932.0398713,N,12220.0506302,W,1,09,1.0,83.430,M,0.000,M,0.0,*5A
$GPGSA,A,3,01,03,10,11,14,18,22,31,32,,,,2.0,1.1,1.7,1*27
$GPGSV,3,1,09,01,57,282,53,03,27,303,48,10,16,107,48,11,38,235,52,1*6C
$GPGSV,3,2,09,14,63,038,54,18,60,230,54,22,50,310,53,31,59,131,53,1*63
$GPGSV,3,3,09,32,37,053,52,,,,,,,,,,,,,1*59
$GPRMC,150712.00,A,3932.0395834,N,12220.0508683,W,0.62,281.91,060220,0.0,E,A*2E
$GPGGA,150712.00,3932.0395834,N,12220.0508683,W,1,09,1.0,83.316,M,0.000,M,0.0,*5F
$GPGSA,A,3,01,03,10,11,14,18,22,31,32,,,,2.0,1.1,1.7,1*27
$GPGSV,3,1,09,01,57,282,54,03,27,303,48,10,16,107,47,11,38,235,51,1*67
$GPGSV,3,2,09,14,63,038,55,18,60,230,55,22,50,310,53,31,59,131,55,1*65
$GPGSV,3,3,09,32,37,053,52,,,,,,,,,,,,,1*59
$GPRMC,150713.00,A,3932.0399458,N,12220.0505781,W,0.49,281.91,060220,0.0,E,A*22
$GPGGA,150713.00,3932.0399458,N,12220.0505781,W,1,09,1.0,84.404,M,0.000,M,0.0,*59
$GPGSA,A,3,01,03,10,11,14,18,22,31,32,,,,2.0,1.1,1.7,1*27
$GPGSV,3,1,09,01,57,282,55,03,27,303,48,10,16,107,46,11,38,235,51,1*67
$GPGSV,3,2,09,14,63,038,54,18,60,230,55,22,50,310,53,31,59,131,54,1*65
$GPGSV,3,3,09,32,37,053,52,,,,,,,,,,,,,1*59
$GPRMC,150714.00,A,3932.0399240,N,12220.0504097,W,1.02,281.91,060220,0.0,E,A*25
$GPGGA,150714.00,3932.0399240,N,12220.0504097,W,1,09,1.0,84.389,M,0.000,M,0.0,*52
$GPGSA,A,3,01,03,10,11,14,18,22,31,32,,,,2.0,1.1,1.7,1*27
$GPGSV,3,1,09,01,57,282,54,03,27,303,50,10,16,107,48,11,38,235,50,1*60
$GPGSV,3,2,09,14,63,038,54,18,60,230,54,22,50,310,53,31,59,131,54,1*64
$GPGSV,3,3,09,32,37,053,52,,,,,,,,,,,,,1*59
$GPRMC,150715.00,A,3932.0393248,N,12220.0503059,W,1.54,281.91,060220,0.0,E,A*20
$GPGGA,150715.00,3932.0393248,N,12220.0503059,W,1,09,1.0,79.479,M,0.000,M,0.0,*5E
$GPGSA,A,3,01,03,10,11,14,18,22,31,32,,,,2.0,1.1,1.7,1*27
$GPGSV,3,1,09,01,57,282,55,03,27,303,50,10,16,107,47,11,38,235,50,1*6E
$GPGSV,3,2,09,14,63,038,54,18,60,230,54,22,50,310,52,31,59,131,54,1*65
$GPGSV,3,3,09,32,37,053,52,,,,,,,,,,,,,1*59
$GPRMC,150716.00,A,3932.0397953,N,12220.0508178,W,0.60,281.91,060220,0.0,E,A*29
$GPGGA,150716.00,3932.0397953,N,12220.0508178,W,1,09,1.0,82.393,M,0.000,M,0.0,*56
$GPGSA,A,3,01,03,10,11,14,18,22,31,32,,,,2.0,1.1,1.7,1*27
$GPGSV,3,1,09,01,57,282,54,03,27,303,50,10,16,107,48,11,37,234,51,1*6F
$GPGSV,3,2,09,14,63,038,55,18,60,230,55,22,50,310,52,31,59,131,56,1*67
$GPGSV,3,3,09,32,37,053,53,,,,,,,,,,,,,1*58
$GPRMC,150717.00,A,3932.0403459,N,12220.0508316,W,1.40,281.91,060220,0.0,E,A*2C
$GPGGA,150717.00,3932.0403459,N,12220.0508316,W,1,09,1.0,83.532,M,0.000,M,0.0,*5C
$GPGSA,A,3,01,03,10,11,14,18,22,31,32,,,,2.0,1.1,1.7,1*27
$GPGSV,3,1,09,01,58,282,54,03,27,303,48,10,16,107,48,11,37,234,52,1*6A
$GPGSV,3,2,09,14,63,038,55,18,60,230,54,22,50,310,52,31,59,130,53,1*62
$GPGSV,3,3,09,32,37,053,54,,,,,,,,,,,,,1*5F
$GPRMC,150718.00,A,3932.0391186,N,12220.0509407,W,1.32,281.91,060220,0.0,E,A*2B
$GPGGA,150718.00,3932.0391186,N,12220.0509407,W,1,09,1.0,85.324,M,0.000,M,0.0,*59
$GPGSA,A,3,01,03,10,11,14,18,22,31,32,,,,2.0,1.1,1.7,1*27
$GPGSV,3,1,09,01,58,282,54,03,27,303,48,10,16,107,47,11,37,234,50,1*67
$GPGSV,3,2,09,14,63,038,53,18,60,230,53,22,50,310,53,31,59,130,52,1*63
$GPGSV,3,3,09,32,37,053,54,,,,,,,,,,,,,1*5F
$GPRMC,150719.00,A,3932.0393349,N,12220.0506881,W,0.54,281.91,060220,0.0,E,A*25
$GPGGA,150719.00,3932.0393349,N,12220.0506881,W,1,09,1.0,82.830,M,0.000,M,0.0,*5F
$GPGSA,A,3,01,03,10,11,14,18,22,31,32,,,,2.0,1.1,1.7,1*27
$GPGSV,3,1,09,01,58,282,54,03,27,303,48,10,16,107,47,11,37,234,50,1*67
$GPGSV,3,2,09,14,63,038,52,18,60,230,53,22,50,310,53,31,59,130,53,1*63
$GPGSV,3,3,09,32,37,053,52,,,,,,,,,,,,,1*59
$GPRMC,150720.00,A,3932.0403385,N,12220.0512037,W,0.75,281.91,060220,0.0,E,A*22
$GPGGA,150720.00,3932.0403385,N,12220.0512037,W,1,09,1.0,84.560,M,0.000,M,0.0,*55
$GPGSA,A,3,01,03,10,11,14,18,22,31,32,,,,2.0,1.1,1.7,1*27
$GPGSV,3,1,09,01,58,282,54,03,27,303,48,10,16,107,47,11,37,234,50,1*67
$GPGSV,3,2,09,14,63,038,53,18,60,229,53,22,50,310,53,31,59,130,55,1*6C
$GPGSV,3,3,09,32,37,053,52,,,,,,,,,,,,,1*59
$GPRMC,150721.00,A,3932.0400015,N,12220.0507453,W,2.03,277.40,060220,0.0,E,A*2E
$GPGGA,150721.00,3932.0400015,N,12220.0507453,W,1,09,1.0,83.707,M,0.000,M,0.0,*5B
$GPGSA,A,3,01,03,10,11,14,18,22,31,32,,,,2.0,1.1,1.7,1*27
$GPGSV,3,1,09,01,58,282,53,03,27,303,48,10,16,107,47,11,37,234,51,1*61
$GPGSV,3,2,09,14,63,038,52,18,60,229,53,22,50,310,53,31,59,130,54,1*6C
$GPGSV,3,3,09,32,37,053,52,,,,,,,,,,,,,1*59
$GPRMC,150722.00,A,3932.0397188,N,12220.0507832,W,0.52,277.40,060220,0.0,E,A*2C
$GPGGA,150722.00,3932.0397188,N,12220.0507832,W,1,09,1.0,83.690,M,0.000,M,0.0,*50
$GPGSA,A,3,01,03,10,11,14,18,22,31,32,,,,2.0,1.1,1.7,1*27
$GPGSV,3,1,09,01,58,282,53,03,27,303,48,10,16,107,47,11,37,234,50,1*60
$GPGSV,3,2,09,14,63,038,52,18,60,229,52,22,50,310,52,31,59,130,54,1*6C
$GPGSV,3,3,09,32,37,053,51,,,,,,,,,,,,,1*5A
$GPRMC,150723.00,A,3932.0394505,N,12220.0507302,W,1.58,277.40,060220,0.0,E,A*2C
$GPGGA,150723.00,3932.0394505,N,12220.0507302,W,1,09,1.0,83.221,M,0.000,M,0.0,*55
$GPGSA,A,3,01,03,10,11,14,18,22,31,32,,,,2.0,1.1,1.7,1*27
$GPGSV,3,1,09,01,58,282,54,03,27,303,48,10,16,107,47,11,37,234,50,1*67
$GPGSV,3,2,09,14,63,038,52,18,60,229,52,22,50,310,52,31,59,130,54,1*6C
$GPGSV,3,3,09,32,37,053,52,,,,,,,,,,,,,1*59
$GPRMC,150724.00,A,3932.0397872,N,12220.0507388,W,0.98,277.40,060220,0.0,E,A*2A
$GPGGA,150724.00,3932.0397872,N,12220.0507388,W,1,09,1.0,85.411,M,0.000,M,0.0,*5D
$GPGSA,A,3,01,03,10,11,14,18,22,31,32,,,,2.0,1.1,1.7,1*27
$GPGSV,3,1,09,01,58,282,53,03,27,303,48,10,16,107,47,11,37,234,49,1*68
$GPGSV,3,2,09,14,63,038,52,18,60,229,52,22,50,310,53,31,59,130,53,1*6A
$GPGSV,3,3,09,32,37,053,52,,,,,,,,,,,,,1*59
$GPRMC,150725.00,A,3932.0398996,N,12220.0508441,W,0.84,277.40,060220,0.0,E,A*2F
$GPGGA,150725.00,3932.0398996,N,12220.0508441,W,1,09,1.0,83.469,M,0.000,M,0.0,*5C
$GPGSA,A,3,01,03,10,11,14,18,22,31,32,,,,2.0,1.1,1.7,1*27
$GPGSV,3,1,09,01,58,282,53,03,27,303,48,10,16,107,47,11,37,234,50,1*60
$GPGSV,3,2,09,14,63,038,52,18,60,229,52,22,50,310,53,31,59,130,53,1*6A
$GPGSV,3,3,09,32,37,053,52,,,,,,,,,,,,,1*59
$GPRMC,150726.00,A,3932.0400346,N,12220.0506148,W,1.67,277.40,060220,0.0,E,A*23
$GPGGA,150726.00,3932.0400346,N,12220.0506148,W,1,09,1.0,84.032,M,0.000,M,0.0,*51
$GPGSA,A,3,01,03,10,11,14,18,22,31,32,,,,2.0,1.1,1.7,1*27
$GPGSV,3,1,09,01,58,282,54,03,27,303,49,10,16,107,48,11,37,234,50,1*69
$GPGSV,3,2,09,14,63,038,51,18,60,229,51,22,50,310,52,31,59,130,52,1*6A
$GPGSV,3,3,09,32,37,053,52,,,,,,,,,,,,,1*59
$GPRMC,150727.00,A,3932.0397887,N,12220.0509442,W,0.18,277.40,060220,0.0,E,A*24
$GPGGA,150727.00,3932.0397887,N,12220.0509442,W,1,09,1.0,83.119,M,0.000,M,0.0,*50
$GPGSA,A,3,01,03,10,11,14,18,22,31,32,,,,2.0,1.1,1.7,1*27
$GPGSV,3,1,09,01,58,282,53,03,27,303,50,10,16,107,48,11,37,234,50,1*66
$GPGSV,3,2,09,14,63,038,51,18,60,229,51,22,50,310,52,31,59,130,53,1*6B
$GPGSV,3,3,09,32,37,053,50,,,,,,,,,,,,,1*5B
$GPRMC,150728.00,A,3932.0394264,N,12220.0512447,W,1.26,277.40,060220,0.0,E,A*2C
$GPGGA,150728.00,3932.0394264,N,12220.0512447,W,1,09,1.0,83.784,M,0.000,M,0.0,*56
$GPGSA,A,3,01,03,10,11,14,18,22,31,32,,,,2.0,1.1,1.7,1*27
$GPGSV,3,1,09,01,58,282,53,03,27,303,51,10,16,107,49,11,37,234,49,1*6E
$GPGSV,3,2,09,14,63,038,51,18,60,229,52,22,50,310,51,31,59,130,54,1*6C
$GPGSV,3,3,09,32,37,053,50,,,,,,,,,,,,,1*5B
$GPRMC,150729.00,A,3932.0398695,N,12220.0502673,W,0.18,277.40,060220,0.0,E,A*23
$GPGGA,150729.00,3932.0398695,N,12220.0502673,W,1,09,1.0,83.038,M,0.000,M,0.0,*55
$GPGSA,A,3,01,03,10,11,14,18,22,31,32,,,,2.0,1.1,1.7,1*27
$GPGSV,3,1,09,01,58,282,53,03,27,303,50,10,16,107,49,11,37,234,50,1*67
$GPGSV,3,2,09,14,63,038,51,18,60,229,52,22,50,310,52,31,59,130,54,1*6F
$GPGSV,3,3,09,32,37,053,50,,,,,,,,,,,,,1*5B
$GPRMC,150730.00,A,3932.0401007,N,12220.0510134,W,0.71,277.40,060220,0.0,E,A*29
$GPGGA,150730.00,3932.0401007,N,12220.0510134,W,1,09,1.0,85.754,M,0.000,M,0.0,*5B
$GPGSA,A,3,01,03,10,11,14,18,22,31,32,,,,2.0,1.1,1.7,1*27
$GPGSV,3,1,09,01,58,282,53,03,27,303,50,10,16,107,48,11,37,234,50,1*66
$GPGSV,3,2,09,14,63,038,52,18,60,229,52,22,50,310,52,31,59,130,54,1*6C
$GPGSV,3,3,09,32,37,053,50,,,,,,,,,,,,,1*5B
$GPRMC,150731.00,A,3932.0395567,N,12220.0505872,W,1.03,277.40,060220,0.0,E,A*2A
$GPGGA,150731.00,3932.0395567,N,12220.0505872,W,1,09,1.0,80.931,M,0.000,M,0.0,*54
$GPGSA,A,3,01,03,10,11,14,18,22,31,32,,,,2.0,1.1,1.7,1*27
$GPGSV,3,1,09,01,58,282,55,03,27,303,48,10,16,108,47,11,37,234,50,1*69
$GPGSV,3,2,09,14,63,038,53,18,60,229,53,22,50,310,52,31,59,130,55,1*6D
$GPGSV,3,3,09,32,37,053,51,,,,,,,,,,,,,1*5A
$GPRMC,150732.00,A,3932.0396428,N,12220.0504492,W,4.24,58.47,060220,0.0,E,A*1B
$GPGGA,150732.00,3932.0396428,N,12220.0504492,W,1,09,1.0,83.450,M,0.000,M,0.0,*54
$GPGSA,A,3,01,03,10,11,14,18,22,31,32,,,,2.0,1.1,1.7,1*27
$GPGSV,3,1,09,01,58,282,54,03,27,303,49,10,16,108,47,11,37,234,50,1*69
$GPGSV,3,2,09,14,63,038,54,18,60,229,53,22,50,310,53,31,59,130,55,1*6B
$GPGSV,3,3,09,32,37,053,50,,,,,,,,,,,,,1*5B
$GPRMC,150733.00,A,3932.0398087,N,12220.0436831,W,19.54,91.66,060220,0.0,E,A*2D
$GPGGA,150733.00,3932.0398087,N,12220.0436831,W,1,09,1.0,83.546,M,0.000,M,0.0,*59
$GPGSA,A,3,01,03,10,11,14,18,22,31,32,,,,2.0,1.1,1.7,1*27
$GPGSV,3,1,09,01,58,282,50,03,27,303,45,10,16,108,44,11,37,234,47,1*64
$GPGSV,3,2,09,14,63,038,51,18,60,229,51,22,50,310,50,31,59,130,52,1*68
$GPGSV,3,3,09,32,37,053,47,,,,,,,,,,,,,1*5D
$GPRMC,150734.00,A,3932.0400334,N,12220.0370992,W,19.64,88.24,060220,0.0,E,A*27
$GPGGA,150734.00,3932.0400334,N,12220.0370992,W,1,09,1.0,84.992,M,0.000,M,0.0,*5C
$GPGSA,A,3,01,03,10,11,14,18,22,31,32,,,,2.0,1.1,1.7,1*27
$GPGSV,3,1,09,01,58,282,53,03,27,303,46,10,16,108,46,11,37,234,50,1*60
$GPGSV,3,2,09,14,63,038,53,18,60,229,52,22,50,310,52,31,59,130,54,1*6D
$GPGSV,3,3,09,32,37,053,50,,,,,,,,,,,,,1*5B
$GPRMC,150735.00,A,3932.0400104,N,12220.0299093,W,19.70,90.40,060220,0.0,E,A*27
$GPGGA,150735.00,3932.0400104,N,12220.0299093,W,1,09,1.0,84.744,M,0.000,M,0.0,*57
$GPGSA,A,3,01,03,10,11,14,18,22,31,32,,,,2.0,1.1,1.7,1*27
$GPGSV,3,1,09,01,58,282,53,03,27,303,46,10,16,108,47,11,37,234,51,1*60
$GPGSV,3,2,09,14,63,038,52,18,60,229,54,22,50,310,53,31,59,130,54,1*6B
$GPGSV,3,3,09,32,37,053,50,,,,,,,,,,,,,1*5B
$GPRMC,150736.00,A,3932.0396527,N,12220.0228209,W,19.40,89.18,060220,0.0,E,A*24
$GPGGA,150736.00,3932.0396527,N,12220.0228209,W,1,09,1.0,83.482,M,0.000,M,0.0,*5C
$GPGSA,A,3,01,03,10,11,14,18,22,31,32,,,,2.0,1.1,1.7,1*27
$GPGSV,3,1,09,01,58,282,53,03,27,303,46,10,16,108,47,11,37,234,51,1*60
$GPGSV,3,2,09,14,63,038,53,18,60,229,54,22,50,310,53,31,59,130,53,1*6D
$GPGSV,3,3,09,32,37,053,50,,,,,,,,,,,,,1*5B
$GPRMC,150737.00,A,3932.0395781,N,12220.0157796,W,19.38,89.24,060220,0.0,E,A*20
$GPGGA,150737.00,3932.0395781,N,12220.0157796,W,1,09,1.0,84.300,M,0.000,M,0.0,*52
$GPGSA,A,3,01,03,10,11,14,18,22,31,32,,,,2.0,1.1,1.7,1*27
$GPGSV,3,1,09,01,58,282,53,03,27,303,48,10,16,108,47,11,37,234,52,1*6D
$GPGSV,3,2,09,14,63,038,55,18,60,229,54,22,50,310,53,31,59,130,54,1*6C
$GPGSV,3,3,09,32,37,053,50,,,,,,,,,,,,,1*5B
$GPRMC,150738.00,A,3932.0398284,N,12220.0087036,W,19.36,91.83,060220,0.0,E,A*29
$GPGGA,150738.00,3932.0398284,N,12220.0087036,W,1,09,1.0,81.322,M,0.000,M,0.0,*54
$GPGSA,A,3,01,03,10,11,14,18,22,31,32,,,,2.0,1.1,1.7,1*27
$GPGSV,3,1,09,01,58,282,52,03,27,303,48,10,16,108,48,11,37,234,52,1*63
$GPGSV,3,2,09,14,63,038,54,18,60,229,55,22,50,310,52,31,59,130,55,1*6C
$GPGSV,3,3,09,32,37,054,50,,,,,,,,,,,,,1*5C
$GPRMC,150739.00,A,3932.0398772,N,12220.0020846,W,19.60,89.79,060220,0.0,E,A*29
$GPGGA,150739.00,3932.0398772,N,12220.0020846,W,1,09,1.0,87.712,M,0.000,M,0.0,*5A
$GPGSA,A,3,01,03,10,11,14,18,22,31,32,,,,2.0,1.1,1.7,1*27
$GPGSV,3,1,09,01,58,282,54,03,27,303,50,10,16,108,48,11,37,234,52,1*6C
$GPGSV,3,2,09,14,63,038,55,18,60,229,54,22,50,310,52,31,59,130,55,1*6C
$GPGSV,3,3,09,32,37,054,50,,,,,,,,,,,,,1*5C
$GPRMC,150740.00,A,3932.0397522,N,12219.9952163,W,19.18,89.24,060220,0.0,E,A*29
$GPGGA,150740.00,3932.0397522,N,12219.9952163,W,1,09,1.0,84.700,M,0.000,M,0.0,*5D
$GPGSA,A,3,01,03,10,11,14,18,22,31,32,,,,2.0,1.1,1.7,1*27
$GPGSV,3,1,09,01,58,282,54,03,27,303,49,10,16,108,48,11,37,234,51,1*67
$GPGSV,3,2,09,14,63,038,55,18,60,229,54,22,50,310,53,31,59,130,55,1*6D
$GPGSV,3,3,09,32,37,054,50,,,,,,,,,,,,,1*5C
$GPRMC,150741.00,A,3932.0390841,N,12219.9872347,W,19.51,88.96,060220,0.0,E,A*25
$GPGGA,150741.00,3932.0390841,N,12219.9872347,W,1,09,1.0,76.429,M,0.000,M,0.0,*51
$GPGSA,A,3,01,03,10,11,14,18,22,31,32,,,,2.0,1.1,1.7,1*27
$GPGSV,3,1,09,01,58,282,55,03,27,303,49,10,16,108,48,11,37,234,52,1*65
$GPGSV,3,2,09,14,63,038,56,18,60,229,55,22,50,310,53,31,59,130,55,1*6F
$GPGSV,3,3,09,32,37,054,52,,,,,,,,,,,,,1*5E
$GPRMC,150742.00,A,3932.0400190,N,12219.9817876,W,19.32,90.30,060220,0.0,E,A*27
$GPGGA,150742.00,3932.0400190,N,12219.9817876,W,1,09,1.0,88.302,M,0.000,M,0.0,*5C
$GPGSA,A,3,01,03,10,11,14,18,22,31,32,,,,2.0,1.1,1.7,1*27
$GPGSV,3,1,09,01,58,282,55,03,27,303,49,10,16,108,48,11,37,234,52,1*65
$GPGSV,3,2,09,14,63,038,55,18,60,229,54,22,50,310,53,31,59,130,55,1*6D
$GPGSV,3,3,09,32,37,054,52,,,,,,,,,,,,,1*5E
$GPRMC,150743.00,A,3932.0390761,N,12219.9737465,W,19.23,90.83,060220,0.0,E,A*2B
$GPGGA,150743.00,3932.0390761,N,12219.9737465,W,1,09,1.0,79.649,M,0.000,M,0.0,*5C
$GPGSA,A,3,01,03,10,11,14,18,22,31,32,,,,2.0,1.1,1.7,1*27
$GPGSV,3,1,09,01,58,282,52,03,27,303,48,10,16,108,48,11,37,234,52,1*63
$GPGSV,3,2,09,14,63,038,54,18,60,229,54,22,50,310,53,31,59,130,54,1*6D
$GPGSV,3,3,09,32,37,054,53,,,,,,,,,,,,,1*5F
$GPRMC,150744.00,A,3932.0397539,N,12219.9668102,W,19.25,90.17,060220,0.0,E,A*20
$GPGGA,150744.00,3932.0397539,N,12219.9668102,W,1,09,1.0,83.605,M,0.000,M,0.0,*51
$GPGSA,A,3,01,03,10,11,14,18,22,31,32,,,,2.0,1.1,1.7,1*27
$GPGSV,3,1,09,01,58,282,54,03,27,303,48,10,16,108,47,11,37,234,51,1*69
$GPGSV,3,2,09,14,63,038,54,18,60,229,54,22,50,310,53,31,59,130,54,1*6D
$GPGSV,3,3,09,32,37,054,52,,,,,,,,,,,,,1*5E
$GPRMC,150745.00,A,3932.0392707,N,12219.9597829,W,19.51,91.10,060220,0.0,E,A*2D
$GPGGA,150745.00,3932.0392707,N,12219.9597829,W,1,09,1.0,78.661,M,0.000,M,0.0,*5F
$GPGSA,A,3,01,03,10,11,14,18,22,31,32,,,,2.0,1.1,1.7,1*27
$GPGSV,3,1,09,01,58,282,55,03,27,303,48,10,16,108,46,11,37,234,50,1*68
$GPGSV,3,2,09,14,63,038,54,18,60,229,54,22,50,310,53,31,59,130,54,1*6D
$GPGSV,3,3,09,32,37,054,52,,,,,,,,,,,,,1*5E
$GPRMC,150746.00,A,3932.0397628,N,12219.9535308,W,19.76,92.29,060220,0.0,E,A*2B
$GPGGA,150746.00,3932.0397628,N,12219.9535308,W,1,09,1.0,91.151,M,0.000,M,0.0,*56
$GPGSA,A,3,01,03,10,11,14,18,22,31,32,,,,2.0,1.1,1.7,1*27
$GPGSV,3,1,09,01,58,282,54,03,27,303,49,10,15,108,46,11,37,234,51,1*6A
$GPGSV,3,2,09,14,63,038,54,18,60,229,55,22,50,310,53,31,59,130,54,1*6C
$GPGSV,3,3,09,32,37,054,52,,,,,,,,,,,,,1*5E
$GPRMC,150747.00,A,3932.0396167,N,12219.9457105,W,18.98,88.15,060220,0.0,E,A*28
$GPGGA,150747.00,3932.0396167,N,12219.9457105,W,1,09,1.0,82.171,M,0.000,M,0.0,*50
$GPGSA,A,3,01,03,10,11,14,18,22,31,32,,,,2.0,1.1,1.7,1*27
$GPGSV,3,1,09,01,58,282,54,03,27,303,50,10,15,108,47,11,37,234,51,1*63
$GPGSV,3,2,09,14,63,038,54,18,60,229,55,22,50,310,54,31,59,130,53,1*6C
$GPGSV,3,3,09,32,37,054,52,,,,,,,,,,,,,1*5E
$GPRMC,150748.00,A,3932.0399111,N,12219.9390725,W,19.27,89.78,060220,0.0,E,A*2E
$GPGGA,150748.00,3932.0399111,N,12219.9390725,W,1,09,1.0,83.153,M,0.000,M,0.0,*58
$GPGSA,A,3,01,03,10,11,14,18,22,31,32,,,,2.0,1.1,1.7,1*27
$GPGSV,3,1,09,01,58,282,54,03,27,303,50,10,15,108,49,11,37,234,50,1*6C
$GPGSV,3,2,09,14,63,038,54,18,60,229,54,22,50,310,53,31,59,130,54,1*6D
$GPGSV,3,3,09,32,37,054,52,,,,,,,,,,,,,1*5E
$GPRMC,150749.00,A,3932.0399808,N,12219.9320217,W,19.29,90.58,060220,0.0,E,A*25
$GPGGA,150749.00,3932.0399808,N,12219.9320217,W,1,09,1.0,80.790,M,0.000,M,0.0,*5D
$GPGSA,A,3,01,03,10,11,14,18,22,31,32,,,,2.0,1.1,1.7,1*27
$GPGSV,3,1,09,01,58,282,54,03,27,303,50,10,15,108,49,11,37,234,51,1*6D
$GPGSV,3,2,09,14,63,038,55,18,60,229,55,22,50,310,54,31,59,130,54,1*6A
$GPGSV,3,3,09,32,37,054,52,,,,,,,,,,,,,1*5E
$GPRMC,150750.00,A,3932.0395241,N,12219.9245267,W,19.07,90.94,060220,0.0,E,A*2F
$GPGGA,150750.00,3932.0395241,N,12219.9245267,W,1,09,1.0,83.415,M,0.000,M,0.0,*56
$GPGSA,A,3,01,03,10,11,14,18,22,31,32,,,,2.0,1.1,1.7,1*27
$GPGSV,3,1,09,01,58,282,54,03,27,303,48,10,15,108,48,11,37,234,52,1*66
$GPGSV,3,2,09,14,63,038,55,18,60,229,55,22,50,310,54,31,59,130,55,1*6B
$GPGSV,3,3,09,32,37,054,51,,,,,,,,,,,,,1*5D
$GPRMC,150751.00,A,3932.0401464,N,12219.9181390,W,19.55,89.17,060220,0.0,E,A*23
$GPGGA,150751.00,3932.0401464,N,12219.9181390,W,1,09,1.0,82.712,M,0.000,M,0.0,*5B
$GPGSA,A,3,01,03,10,11,14,18,22,31,32,,,,2.0,1.1,1.7,1*27
$GPGSV,3,1,09,01,58,282,54,03,27,303,48,10,15,108,48,11,37,234,53,1*67
$GPGSV,3,2,09,14,63,038,55,18,60,229,56,22,50,310,54,31,59,130,54,1*69
$GPGSV,3,3,09,32,37,054,51,,,,,,,,,,,,,1*5D
$GPRMC,150752.00,A,3932.0394396,N,12219.9114395,W,19.51,89.14,060220,0.0,E,A*2F
$GPGGA,150752.00,3932.0394396,N,12219.9114395,W,1,09,1.0,85.291,M,0.000,M,0.0,*59
$GPGSA,A,3,01,03,10,11,14,18,22,31,32,,,,2.0,1.1,1.7,1*27
$GPGSV,3,1,09,01,58,282,53,03,27,303,48,10,15,108,48,11,37,234,51,1*62
$GPGSV,3,2,09,14,63,038,54,18,60,229,54,22,50,310,53,31,59,130,54,1*6D
$GPGSV,3,3,09,32,37,054,50,,,,,,,,,,,,,1*5C
$GPRMC,150753.00,A,3932.0400353,N,12219.9042722,W,19.49,89.94,060220,0.0,E,A*26
$GPGGA,150753.00,3932.0400353,N,12219.9042722,W,1,09,1.0,88.836,M,0.000,M,0.0,*5B
$GPGSA,A,3,01,03,10,11,14,18,22,31,32,,,,2.0,1.1,1.7,1*27
$GPGSV,3,1,09,01,58,282,54,03,27,303,48,10,15,108,48,11,37,234,51,1*65
$GPGSV,3,2,09,14,63,038,54,18,60,229,54,22,50,310,52,31,59,130,55,1*6D
$GPGSV,3,3,09,32,37,054,51,,,,,,,,,,,,,1*5D
$GPRMC,150754.00,A,3932.0391624,N,12219.8970517,W,19.26,90.42,060220,0.0,E,A*2C
$GPGGA,150754.00,3932.0391624,N,12219.8970517,W,1,09,1.0,80.456,M,0.000,M,0.0,*59
$GPGSA,A,3,01,03,10,11,14,18,22,31,32,,,,2.0,1.1,1.7,1*27
$GPGSV,3,1,09,01,58,282,53,03,27,303,48,10,15,108,48,11,37,234,50,1*63
$GPGSV,3,2,09,14,63,038,55,18,60,229,54,22,50,310,53,31,59,130,54,1*6C
$GPGSV,3,3,09,32,37,054,52,,,,,,,,,,,,,1*5E
$GPRMC,150755.00,A,3932.0395526,N,12219.8899434,W,19.75,88.85,060220,0.0,E,A*2A
$GPGGA,150755.00,3932.0395526,N,12219.8899434,W,1,09,1.0,82.839,M,0.000,M,0.0,*5C
$GPGSA,A,3,01,03,10,11,14,18,22,31,32,,,,2.0,1.1,1.7,1*27
$GPGSV,3,1,09,01,58,282,54,03,27,303,48,10,15,108,46,11,37,234,50,1*6A
$GPGSV,3,2,09,14,63,038,56,18,60,229,54,22,50,310,53,31,59,130,53,1*68
$GPGSV,3,3,09,32,37,054,52,,,,,,,,,,,,,1*5E
$GPRMC,150756.00,A,3932.0403639,N,12219.8832387,W,19.74,90.39,060220,0.0,E,A*2D
$GPGGA,150756.00,3932.0403639,N,12219.8832387,W,1,09,1.0,84.716,M,0.000,M,0.0,*50
$GPGSA,A,3,01,03,10,11,14,18,22,31,32,,,,2.0,1.1,1.7,1*27
$GPGSV,3,1,09,01,58,282,54,03,27,303,48,10,15,108,48,11,37,234,50,1*64
$GPGSV,3,2,09,14,63,038,55,18,60,229,55,22,50,310,52,31,59,130,54,1*6C
$GPGSV,3,3,09,32,37,054,52,,,,,,,,,,,,,1*5E
$GPRMC,150757.00,A,3932.0398850,N,12219.8762701,W,19.03,87.38,060220,0.0,E,A*2F
$GPGGA,150757.00,3932.0398850,N,12219.8762701,W,1,09,1.0,84.808,M,0.000,M,0.0,*55
$GPGSA,A,3,01,03,10,11,14,18,22,31,32,,,,2.0,1.1,1.7,1*27
$GPGSV,3,1,09,01,58,282,54,03,27,303,48,10,15,108,48,11,37,234,50,1*64
$GPGSV,3,2,09,14,63,038,56,18,60,229,55,22,50,310,53,31,59,130,55,1*6F
$GPGSV,3,3,09,32,37,054,52,,,,,,,,,,,,,1*5E
$GPRMC,150758.00,A,3932.0393835,N,12219.8689506,W,19.36,90.64,060220,0.0,E,A*20
$GPGGA,150758.00,3932.0393835,N,12219.8689506,W,1,09,1.0,83.492,M,0.000,M,0.0,*5B
$GPGSA,A,3,01,03,10,11,14,18,22,31,32,,,,2.0,1.1,1.7,1*27
$GPGSV,3,1,09,01,58,282,54,03,27,303,48,10,15,108,47,11,37,234,51,1*6A
$GPGSV,3,2,09,14,63,038,55,18,60,229,54,22,50,310,54,31,59,130,54,1*6B
$GPGSV,3,3,09,32,37,054,51,,,,,,,,,,,,,1*5D
$GPRMC,150759.00,A,3932.0395526,N,12219.8623028,W,19.47,91.50,060220,0.0,E,A*21
$GPGGA,150759.00,3932.0395526,N,12219.8623028,W,1,09,1.0,82.258,M,0.000,M,0.0,*5B
$GPGSA,A,3,01,03,10,11,14,18,22,31,32,,,,2.0,1.1,1.7,1*27
$GPGSV,3,1,09,01,58,282,53,03,27,303,48,10,15,108,48,11,37,234,49,1*6B
$GPGSV,3,2,09,14,63,038,54,18,60,229,54,22,50,310,53,31,59,130,54,1*6D
$GPGSV,3,3,09,32,37,054,50,,,,,,,,,,,,,1*5C
$GPRMC,150800.00,A,3932.0397069,N,12219.8557101,W,19.20,89.90,060220,0.0,E,A*20
$GPGGA,150800.00,3932.0397069,N,12219.8557101,W,1,09,1.0,83.128,M,0.000,M,0.0,*5B
$GPGSA,A,3,01,03,10,11,14,18,22,31,32,,,,2.0,1.1,1.7,1*27
$GPGSV,3,1,09,01,58,282,52,03,27,303,49,10,15,108,47,11,37,234,50,1*6C
$GPGSV,3,2,09,14,63,038,54,18,60,229,53,22,50,310,52,31,59,130,54,1*6B
$GPGSV,3,3,09,32,37,054,52,,,,,,,,,,,,,1*5E
$GPRMC,150801.00,A,3932.0398219,N,12219.8483346,W,19.41,89.15,060220,0.0,E,A*28
$GPGGA,150801.00,3932.0398219,N,12219.8483346,W,1,09,1.0,84.067,M,0.000,M,0.0,*54
$GPGSA,A,3,01,03,10,11,14,18,22,31,32,,,,2.0,1.1,1.7,1*27
$GPGSV,3,1,09,01,58,282,52,03,27,303,48,10,15,108,48,11,37,234,50,1*62
$GPGSV,3,2,09,14,63,038,54,18,60,229,53,22,50,310,52,31,59,130,54,1*6B
$GPGSV,3,3,09,32,37,054,50,,,,,,,,,,,,,1*5C
$GPRMC,150802.00,A,3932.0397238,N,12219.8411836,W,19.28,89.77,060220,0.0,E,A*2B
$GPGGA,150802.00,3932.0397238,N,12219.8411836,W,1,09,1.0,83.272,M,0.000,M,0.0,*5D
$GPGSA,A,3,01,03,10,11,14,18,22,31,32,,,,2.0,1.1,1.7,1*27
$GPGSV,3,1,09,01,58,282,52,03,27,303,50,10,15,108,49,11,37,234,51,1*6B
$GPGSV,3,2,09,14,63,038,54,18,60,229,53,22,51,310,53,31,59,130,53,1*6C
$GPGSV,3,3,09,32,37,054,50,,,,,,,,,,,,,1*5C
$GPRMC,150803.00,A,3932.0397071,N,12219.8347339,W,19.14,89.88,060220,0.0,E,A*2A
$GPGGA,150803.00,3932.0397071,N,12219.8347339,W,1,09,1.0,84.849,M,0.000,M,0.0,*56
$GPGSA,A,3,01,03,10,11,14,18,22,31,32,,,,2.0,1.1,1.7,1*27
$GPGSV,3,1,09,01,58,282,53,03,27,303,49,10,15,108,49,11,37,234,51,1*62
$GPGSV,3,2,09,14,63,038,54,18,60,229,53,22,51,310,54,31,59,130,54,1*6C
$GPGSV,3,3,09,32,37,054,50,,,,,,,,,,,,,1*5C
$GPRMC,150804.00,A,3932.0393727,N,12219.8271239,W,20.06,91.08,060220,0.0,E,A*20
$GPGGA,150804.00,3932.0393727,N,12219.8271239,W,1,09,1.0,82.212,M,0.000,M,0.0,*56
$GPGSA,A,3,01,03,10,11,14,18,22,31,32,,,,2.0,1.1,1.7,1*27
$GPGSV,3,1,09,01,58,282,52,03,27,303,48,10,15,108,48,11,37,234,50,1*62
$GPGSV,3,2,09,14,63,038,54,18,60,229,54,22,51,310,52,31,59,130,54,1*6D
$GPGSV,3,3,09,32,37,054,51,,,,,,,,,,,,,1*5D
$GPRMC,150805.00,A,3932.0395792,N,12219.8204695,W,19.34,87.93,060220,0.0,E,A*27
$GPGGA,150805.00,3932.0395792,N,12219.8204695,W,1,09,1.0,83.102,M,0.000,M,0.0,*5C
$GPGSA,A,3,01,03,10,11,14,18,22,31,32,,,,2.0,1.1,1.7,1*27
$GPGSV,3,1,09,01,58,282,52,03,27,303,49,10,15,108,47,11,37,234,50,1*6C
$GPGSV,3,2,09,14,63,038,54,18,60,229,54,22,51,310,52,31,59,130,54,1*6D
$GPGSV,3,3,09,32,37,054,52,,,,,,,,,,,,,1*5E
$GPRMC,150806.00,A,3932.0399722,N,12219.8135214,W,19.31,90.17,060220,0.0,E,A*20
$GPGGA,150806.00,3932.0399722,N,12219.8135214,W,1,09,1.0,81.691,M,0.000,M,0.0,*5B
$GPGSA,A,3,01,03,10,11,14,18,22,31,32,,,,2.0,1.1,1.7,1*27
$GPGSV,3,1,09,01,58,282,52,03,27,303,50,10,15,108,45,11,37,234,52,1*64
$GPGSV,3,2,09,14,63,038,54,18,60,229,54,22,51,310,53,31,59,130,53,1*6B
$GPGSV,3,3,09,32,36,054,52,,,,,,,,,,,,,1*5F
$GPRMC,150807.00,A,3932.0396384,N,12219.8065865,W,19.43,87.92,060220,0.0,E,A*20
$GPGGA,150807.00,3932.0396384,N,12219.8065865,W,1,09,1.0,83.204,M,0.000,M,0.0,*5F
$GPGSA,A,3,01,03,10,11,14,18,22,31,32,,,,2.0,1.1,1.7,1*27
$GPGSV,3,1,09,01,58,282,53,03,27,303,50,10,15,108,46,11,37,234,51,1*65
$GPGSV,3,2,09,14,62,038,54,18,60,229,53,22,51,310,53,31,59,130,53,1*6D
$GPGSV,3,3,09,32,36,054,50,,,,,,,,,,,,,1*5D
$GPRMC,150808.00,A,3932.0400457,N,12219.7995301,W,19.65,89.91,060220,0.0,E,A*27
$GPGGA,150808.00,3932.0400457,N,12219.7995301,W,1,09,1.0,83.028,M,0.000,M,0.0,*5D
$GPGSA,A,3,01,03,10,11,14,18,22,31,32,,,,2.0,1.1,1.7,1*27
$GPGSV,3,1,09,01,58,282,53,03,27,303,48,10,15,108,46,11,37,234,52,1*6F
$GPGSV,3,2,09,14,62,038,54,18,60,229,53,22,51,310,53,31,59,130,53,1*6D
$GPGSV,3,3,09,32,36,054,50,,,,,,,,,,,,,1*5D
$GPRMC,150809.00,A,3932.0398101,N,12219.7923516,W,19.97,91.11,060220,0.0,E,A*27
$GPGGA,150809.00,3932.0398101,N,12219.7923516,W,1,09,1.0,83.330,M,0.000,M,0.0,*5B
$GPGSA,A,3,01,03,10,11,14,18,22,31,32,,,,2.0,1.1,1.7,1*27
$GPGSV,3,1,09,01,58,281,53,03,27,303,48,10,15,108,46,11,37,234,51,1*6F
$GPGSV,3,2,09,14,62,038,52,18,60,229,53,22,51,310,53,31,59,130,54,1*6C
$GPGSV,3,3,09,32,36,054,52,,,,,,,,,,,,,1*5F
$GPRMC,150810.00,A,3932.0398872,N,12219.7856703,W,19.18,92.74,060220,0.0,E,A*20
$GPGGA,150810.00,3932.0398872,N,12219.7856703,W,1,09,1.0,83.164,M,0.000,M,0.0,*58
$GPGSA,A,3,01,03,10,11,14,18,22,31,32,,,,2.0,1.1,1.7,1*27
$GPGSV,3,1,09,01,58,281,54,03,27,303,48,10,15,108,47,11,37,234,52,1*6A
$GPGSV,3,2,09,14,62,038,53,18,60,229,52,22,51,310,52,31,59,130,54,1*6D
$GPGSV,3,3,09,32,36,054,51,,,,,,,,,,,,,1*5C
$GPRMC,150811.00,A,3932.0397401,N,12219.7787807,W,19.47,88.74,060220,0.0,E,A*2F
$GPGGA,150811.00,3932.0397401,N,12219.7787807,W,1,09,1.0,83.897,M,0.000,M,0.0,*53
$GPGSA,A,3,01,03,10,11,14,18,22,31,32,,,,2.0,1.1,1.7,1*27
$GPGSV,3,1,09,01,58,281,54,03,27,303,49,10,15,108,48,11,37,234,51,1*67
$GPGSV,3,2,09,14,62,038,52,18,60,229,51,22,51,310,52,31,59,130,54,1*6F
$GPGSV,3,3,09,32,36,054,51,,,,,,,,,,,,,1*5C
$GPRMC,150812.00,A,3932.0394184,N,12219.7714297,W,19.63,90.26,060220,0.0,E,A*26
$GPGGA,150812.00,3932.0394184,N,12219.7714297,W,1,09,1.0,82.135,M,0.000,M,0.0,*52
$GPGSA,A,3,01,03,10,11,14,18,22,31,32,,,,2.0,1.1,1.7,1*27
$GPGSV,3,1,09,01,58,281,53,03,27,303,48,10,15,108,48,11,37,234,50,1*60
$GPGSV,3,2,09,14,62,038,52,18,60,229,50,22,51,310,52,31,59,130,54,1*6E
$GPGSV,3,3,09,32,36,054,51,,,,,,,,,,,,,1*5C
$GPRMC,150813.00,A,3932.0396253,N,12219.7646701,W,19.36,90.17,060220,0.0,E,A*22
$GPGGA,150813.00,3932.0396253,N,12219.7646701,W,1,09,1.0,84.059,M,0.000,M,0.0,*59
$GPGSA,A,3,01,03,10,11,14,18,22,31,32,,,,2.0,1.1,1.7,1*27
$GPGSV,3,1,09,01,58,281,53,03,27,303,48,10,15,108,48,11,37,234,50,1*60
$GPGSV,3,2,09,14,62,038,52,18,60,229,51,22,51,310,52,31,59,130,54,1*6F
$GPGSV,3,3,09,32,36,054,51,,,,,,,,,,,,,1*5C
$GPRMC,150814.00,A,3932.0398747,N,12219.7575926,W,19.16,90.40,060220,0.0,E,A*23
$GPGGA,150814.00,3932.0398747,N,12219.7575926,W,1,09,1.0,83.325,M,0.000,M,0.0,*57
$GPGSA,A,3,01,03,10,11,14,18,22,31,32,,,,2.0,1.1,1.7,1*27
$GPGSV,3,1,09,01,58,281,54,03,27,303,48,10,15,108,48,11,37,234,52,1*65
$GPGSV,3,2,09,14,62,038,52,18,60,229,52,22,51,310,52,31,59,130,54,1*6C
$GPGSV,3,3,09,32,36,054,50,,,,,,,,,,,,,1*5D
$GPRMC,150815.00,A,3932.0401611,N,12219.7503935,W,19.85,88.61,060220,0.0,E,A*24
$GPGGA,150815.00,3932.0401611,N,12219.7503935,W,1,09,1.0,82.256,M,0.000,M,0.0,*54
$GPGSA,A,3,01,03,10,11,14,18,22,31,32,,,,2.0,1.1,1.7,1*27
$GPGSV,3,1,09,01,58,281,54,03,27,303,49,10,15,108,47,11,37,234,51,1*68
$GPGSV,3,2,09,14,62,038,53,18,60,229,52,22,51,310,52,31,59,130,54,1*6D
$GPGSV,3,3,09,32,36,054,51,,,,,,,,,,,,,1*5C
$GPRMC,150816.00,A,3932.0395050,N,12219.7437524,W,19.51,90.55,060220,0.0,E,A*23
$GPGGA,150816.00,3932.0395050,N,12219.7437524,W,1,09,1.0,82.143,M,0.000,M,0.0,*53
$GPGSA,A,3,01,03,10,11,14,18,22,31,32,,,,2.0,1.1,1.7,1*27
$GPGSV,3,1,09,01,58,281,54,03,27,303,50,10,15,108,46,11,37,234,50,1*60
$GPGSV,3,2,09,14,62,038,53,18,60,229,53,22,51,310,52,31,59,130,53,1*6B
$GPGSV,3,3,09,32,36,054,52,,,,,,,,,,,,,1*5F
$GPRMC,150817.00,A,3932.0395345,N,12219.7369792,W,18.76,91.52,060220,0.0,E,A*24
$GPGGA,150817.00,3932.0395345,N,12219.7369792,W,1,09,1.0,83.482,M,0.000,M,0.0,*5F
$GPGSA,A,3,01,03,10,11,14,18,22,31,32,,,,2.0,1.1,1.7,1*27
$GPGSV,3,1,09,01,58,281,54,03,27,303,50,10,15,108,46,11,37,234,51,1*61
$GPGSV,3,2,09,14,62,038,54,18,60,229,53,22,51,310,53,31,59,130,54,1*6A
$GPGSV,3,3,09,32,36,054,51,,,,,,,,,,,,,1*5C
$GPRMC,150818.00,A,3932.0392758,N,12219.7295870,W,19.60,90.69,060220,0.0,E,A*2A
$GPGGA,150818.00,3932.0392758,N,12219.7295870,W,1,09,1.0,81.227,M,0.000,M,0.0,*55
$GPGSA,A,3,01,03,10,11,14,18,22,31,32,,,,2.0,1.1,1.7,1*27
$GPGSV,3,1,09,01,58,281,54,03,27,303,50,10,15,108,46,11,37,234,50,1*60
$GPGSV,3,2,09,14,62,038,54,18,60,229,53,22,51,310,54,31,59,130,53,1*6A
$GPGSV,3,3,09,32,36,054,50,,,,,,,,,,,,,1*5D
$GPRMC,150819.00,A,3932.0397105,N,12219.7230713,W,19.52,90.85,060220,0.0,E,A*26
$GPGGA,150819.00,3932.0397105,N,12219.7230713,W,1,09,1.0,82.074,M,0.000,M,0.0,*5D
$GPGSA,A,3,01,03,10,11,14,18,22,31,32,,,,2.0,1.1,1.7,1*27
$GPGSV,3,1,09,01,58,281,53,03,27,303,50,10,15,108,47,11,37,234,51,1*67
$GPGSV,3,2,09,14,62,038,54,18,60,229,54,22,51,310,53,31,59,130,52,1*6B
$GPGSV,3,3,09,32,36,054,50,,,,,,,,,,,,,1*5D
$GPRMC,150820.00,A,3932.0396348,N,12219.7157678,W,19.73,90.41,060220,0.0,E,A*23
$GPGGA,150820.00,3932.0396348,N,12219.7157678,W,1,09,1.0,83.054,M,0.000,M,0.0,*50
$GPGSA,A,3,01,03,10,11,14,18,22,31,32,,,,2.0,1.1,1.7,1*27
$GPGSV,3,1,09,01,58,281,54,03,27,303,48,10,15,108,48,11,37,234,50,1*67
$GPGSV,3,2,09,14,62,038,55,18,60,229,54,22,51,310,52,31,59,130,53,1*6A
$GPGSV,3,3,09,32,36,054,51,,,,,,,,,,,,,1*5C
$GPRMC,150821.00,A,3932.0401504,N,12219.7088874,W,19.35,89.38,060220,0.0,E,A*20
$GPGGA,150821.00,3932.0401504,N,12219.7088874,W,1,09,1.0,85.380,M,0.000,M,0.0,*5B
$GPGSA,A,3,01,03,10,11,14,18,22,31,32,,,,2.0,1.1,1.7,1*27
$GPGSV,3,1,09,01,58,281,53,03,27,303,50,10,15,108,48,11,37,234,51,1*68
$GPGSV,3,2,09,14,62,038,56,18,60,229,54,22,51,310,53,31,59,130,53,1*68
$GPGSV,3,3,09,32,36,054,51,,,,,,,,,,,,,1*5C
$GPRMC,150822.00,A,3932.0394291,N,12219.7018803,W,19.37,88.96,060220,0.0,E,A*2D
$GPGGA,150822.00,3932.0394291,N,12219.7018803,W,1,09,1.0,82.142,M,0.000,M,0.0,*5A
$GPGSA,A,3,01,03,10,11,14,18,22,31,32,,,,2.0,1.1,1.7,1*27
$GPGSV,3,1,09,01,58,281,54,03,27,303,50,10,15,108,48,11,37,234,50,1*6E
$GPGSV,3,2,09,14,62,038,55,18,60,229,54,22,51,310,52,31,59,130,54,1*6D
$GPGSV,3,3,09,32,36,054,51,,,,,,,,,,,,,1*5C
$GPRMC,150823.00,A,3932.0399359,N,12219.6950737,W,19.64,88.03,060220,0.0,E,A*22
$GPGGA,150823.00,3932.0399359,N,12219.6950737,W,1,09,1.0,82.414,M,0.000,M,0.0,*59
$GPGSA,A,3,01,03,10,11,14,18,22,31,32,,,,2.0,1.1,1.7,1*27
$GPGSV,3,1,09,01,58,281,54,03,27,303,50,10,15,108,49,11,37,234,51,1*6E
$GPGSV,3,2,09,14,62,038,54,18,60,229,54,22,51,310,51,31,59,130,55,1*6E
$GPGSV,3,3,09,32,36,054,50,,,,,,,,,,,,,1*5D
$GPRMC,150824.00,A,3932.0399283,N,12219.6876622,W,19.37,89.35,060220,0.0,E,A*21
$GPGGA,150824.00,3932.0399283,N,12219.6876622,W,1,09,1.0,82.767,M,0.000,M,0.0,*5F
$GPGSA,A,3,01,03,10,11,14,18,22,31,32,,,,2.0,1.1,1.7,1*27
$GPGSV,3,1,09,01,58,281,54,03,27,303,50,10,15,108,49,11,37,234,52,1*6D
$GPGSV,3,2,09,14,62,038,54,18,60,229,54,22,51,310,53,31,59,130,55,1*6C
$GPGSV,3,3,09,32,36,054,51,,,,,,,,,,,,,1*5C
$GPRMC,150825.00,A,3932.0399441,N,12219.6808589,W,19.35,89.84,060220,0.0,E,A*2B
$GPGGA,150825.00,3932.0399441,N,12219.6808589,W,1,09,1.0,83.958,M,0.000,M,0.0,*5E
$GPGSA,A,3,01,03,10,11,14,18,22,31,32,,,,2.0,1.1,1.7,1*27
$GPGSV,3,1,09,01,58,281,54,03,27,303,49,10,15,108,48,11,37,234,54,1*62
$GPGSV,3,2,09,14,62,038,54,18,60,229,55,22,51,310,54,31,59,130,55,1*6A
$GPGSV,3,3,09,32,36,054,51,,,,,,,,,,,,,1*5C
$GPRMC,150826.00,A,3932.0396623,N,12219.6736268,W,19.46,89.03,060220,0.0,E,A*20
$GPGGA,150826.00,3932.0396623,N,12219.6736268,W,1,09,1.0,82.660,M,0.000,M,0.0,*5B
$GPGSA,A,3,01,03,10,11,14,18,22,31,32,,,,2.0,1.1,1.7,1*27
$GPGSV,3,1,09,01,58,281,54,03,27,303,48,10,15,108,48,11,37,234,53,1*64
$GPGSV,3,2,09,14,62,038,55,18,60,229,54,22,51,310,53,31,59,130,54,1*6C
$GPGSV,3,3,09,32,36,054,51,,,,,,,,,,,,,1*5C
$GPRMC,150827.00,A,3932.0397494,N,12219.6671726,W,19.87,90.46,060220,0.0,E,A*27
$GPGGA,150827.00,3932.0397494,N,12219.6671726,W,1,09,1.0,87.438,M,0.000,M,0.0,*52
$GPGSA,A,3,01,03,10,11,14,18,22,31,32,,,,2.0,1.1,1.7,1*27
$GPGSV,3,1,09,01,58,281,54,03,27,303,47,10,15,108,48,11,37,234,52,1*6A
$GPGSV,3,2,09,14,62,038,54,18,60,229,55,22,51,310,53,31,59,130,54,1*6C
$GPGSV,3,3,09,32,36,054,51,,,,,,,,,,,,,1*5C
$GPRMC,150828.00,A,3932.0398427,N,12219.6594142,W,19.80,89.38,060220,0.0,E,A*25
$GPGGA,150828.00,3932.0398427,N,12219.6594142,W,1,09,1.0,83.939,M,0.000,M,0.0,*5E
$GPGSA,A,3,01,03,10,11,14,18,22,31,32,,,,2.0,1.1,1.7,1*27
$GPGSV,3,1,09,01,58,281,53,03,27,303,48,10,15,108,48,11,37,234,50,1*60
$GPGSV,3,2,09,14,62,038,54,18,60,229,54,22,51,310,54,31,59,130,55,1*6B
$GPGSV,3,3,09,32,36,054,51,,,,,,,,,,,,,1*5C
$GPRMC,150829.00,A,3932.0392861,N,12219.6531490,W,19.66,90.45,060220,0.0,E,A*2F
$GPGGA,150829.00,3932.0392861,N,12219.6531490,W,1,09,1.0,84.272,M,0.000,M,0.0,*5D
$GPGSA,A,3,01,03,10,11,14,18,22,31,32,,,,2.0,1.1,1.7,1*27
$GPGSV,3,1,09,01,58,281,53,03,27,303,49,10,15,108,47,11,37,234,49,1*66
$GPGSV,3,2,09,14,62,038,54,18,59,229,55,22,51,310,53,31,59,130,55,1*67
$GPGSV,3,3,09,32,36,054,52,,,,,,,,,,,,,1*5F
$GPRMC,150830.00,A,3932.0393218,N,12219.6458668,W,19.72,90.23,060220,0.0,E,A*2C
$GPGGA,150830.00,3932.0393218,N,12219.6458668,W,1,09,1.0,82.288,M,0.000,M,0.0,*58
$GPGSA,A,3,01,03,10,11,14,18,22,31,32,,,,2.0,1.1,1.7,1*27
$GPGSV,3,1,09,01,58,281,54,03,27,303,49,10,15,108,47,11,37,234,50,1*69
$GPGSV,3,2,09,14,62,038,54,18,59,229,56,22,51,310,53,31,59,130,54,1*65
$GPGSV,3,3,09,32,36,054,50,,,,,,,,,,,,,1*5D
$GPRMC,150831.00,A,3932.0395156,N,12219.6391966,W,19.48,88.98,060220,0.0,E,A*21
$GPGGA,150831.00,3932.0395156,N,12219.6391966,W,1,09,1.0,83.069,M,0.000,M,0.0,*59
$GPGSA,A,3,01,03,10,11,14,18,22,31,32,,,,2.0,1.1,1.7,1*27
$GPGSV,3,1,09,01,58,281,54,03,27,303,49,10,15,108,47,11,37,234,52,1*6B
$GPGSV,3,2,09,14,62,038,55,18,59,229,56,22,51,310,53,31,59,130,54,1*64
$GPGSV,3,3,09,32,36,054,50,,,,,,,,,,,,,1*5D
$GPRMC,150832.00,A,3932.0396252,N,12219.6320775,W,19.53,88.77,060220,0.0,E,A*2B
$GPGGA,150832.00,3932.0396252,N,12219.6320775,W,1,09,1.0,83.955,M,0.000,M,0.0,*5E
$GPGSA,A,3,01,03,10,11,14,18,22,31,32,,,,2.0,1.1,1.7,1*27
$GPGSV,3,1,09,01,58,281,53,03,27,303,49,10,15,108,47,11,37,234,51,1*6F
$GPGSV,3,2,09,14,62,038,56,18,59,229,55,22,51,310,54,31,59,130,52,1*65
$GPGSV,3,3,09,32,36,054,50,,,,,,,,,,,,,1*5D
$GPRMC,150833.00,A,3932.0392033,N,12219.6249177,W,19.18,89.48,060220,0.0,E,A*23
$GPGGA,150833.00,3932.0392033,N,12219.6249177,W,1,09,1.0,84.711,M,0.000,M,0.0,*5D
$GPGSA,A,3,01,03,10,11,14,18,22,31,32,,,,2.0,1.1,1.7,1*27
$GPGSV,3,1,09,01,58,281,53,03,27,303,49,10,15,108,46,11,37,234,50,1*6F
$GPGSV,3,2,09,14,62,038,55,18,59,229,54,22,51,310,54,31,59,129,53,1*6E
$GPGSV,3,3,09,32,36,054,50,,,,,,,,,,,,,1*5D
$GPRMC,150834.00,A,3932.0395142,N,12219.6181825,W,19.61,89.18,060220,0.0,E,A*26
$GPGGA,150834.00,3932.0395142,N,12219.6181825,W,1,09,1.0,83.868,M,0.000,M,0.0,*55
$GPGSA,A,3,01,03,10,11,14,18,22,31,32,,,,2.0,1.1,1.7,1*27
$GPGSV,3,1,09,01,58,281,52,03,27,303,51,10,15,108,46,11,37,234,50,1*67
$GPGSV,3,2,09,14,62,038,55,18,59,229,53,22,51,310,54,31,59,129,54,1*6E
$GPGSV,3,3,09,32,36,054,50,,,,,,,,,,,,,1*5D
$GPRMC,150835.00,A,3932.0396134,N,12219.6103477,W,19.54,88.77,060220,0.0,E,A*2A
$GPGGA,150835.00,3932.0396134,N,12219.6103477,W,1,09,1.0,82.968,M,0.000,M,0.0,*57
$GPGSA,A,3,01,03,10,11,14,18,22,31,32,,,,2.0,1.1,1.7,1*27
$GPGSV,3,1,09,01,58,281,54,03,27,303,50,10,15,108,46,11,37,234,50,1*60
$GPGSV,3,2,09,14,62,038,55,18,59,229,53,22,51,310,53,31,59,129,54,1*69
$GPGSV,3,3,09,32,36,054,50,,,,,,,,,,,,,1*5D
$GPRMC,150836.00,A,3932.0400062,N,12219.6040282,W,19.73,90.04,060220,0.0,E,A*21
$GPGGA,150836.00,3932.0400062,N,12219.6040282,W,1,09,1.0,82.925,M,0.000,M,0.0,*5D
$GPGSA,A,3,01,03,10,11,14,18,22,31,32,,,,2.0,1.1,1.7,1*27
$GPGSV,3,1,09,01,58,281,54,03,27,303,50,10,15,108,46,11,37,234,50,1*60
$GPGSV,3,2,09,14,62,038,53,18,59,228,54,22,51,310,52,31,59,129,53,1*6F
$GPGSV,3,3,09,32,36,054,50,,,,,,,,,,,,,1*5D
$GPRMC,150837.00,A,3932.0396466,N,12219.5971773,W,19.12,89.57,060220,0.0,E,A*22
$GPGGA,150837.00,3932.0396466,N,12219.5971773,W,1,09,1.0,84.436,M,0.000,M,0.0,*5E
$GPGSA,A,3,01,03,10,11,14,18,22,31,32,,,,2.0,1.1,1.7,1*27
$GPGSV,3,1,09,01,58,281,54,03,27,303,50,10,15,108,48,11,37,234,50,1*6E
$GPGSV,3,2,09,14,62,038,53,18,59,228,53,22,51,310,53,31,59,129,52,1*68
$GPGSV,3,3,09,32,36,054,50,,,,,,,,,,,,,1*5D
$GPRMC,150838.00,A,3932.0395999,N,12219.5903039,W,19.34,89.26,060220,0.0,E,A*2D
$GPGGA,150838.00,3932.0395999,N,12219.5903039,W,1,09,1.0,84.749,M,0.000,M,0.0,*58
$GPGSA,A,3,01,03,10,11,14,18,22,31,32,,,,2.0,1.1,1.7,1*27
$GPGSV,3,1,09,01,58,281,54,03,27,303,48,10,15,108,48,11,37,234,51,1*66
$GPGSV,3,2,09,14,62,038,53,18,59,228,53,22,51,310,52,31,59,129,52,1*69
$GPGSV,3,3,09,32,36,054,50,,,,,,,,,,,,,1*5D
$GPRMC,150839.00,A,3932.0398813,N,12219.5835189,W,19.48,88.71,060220,0.0,E,A*24
$GPGGA,150839.00,3932.0398813,N,12219.5835189,W,1,09,1.0,82.087,M,0.000,M,0.0,*5A
$GPGSA,A,3,01,03,10,11,14,18,22,31,32,,,,2.0,1.1,1.7,1*27
$GPGSV,3,1,09,01,58,281,54,03,27,303,48,10,15,108,46,11,37,234,51,1*68
$GPGSV,3,2,09,14,62,038,52,18,59,228,52,22,51,310,52,31,59,129,52,1*69
$GPGSV,3,3,09,32,36,054,49,,,,,,,,,,,,,1*55
$GPRMC,150840.00,A,3932.0397259,N,12219.5760480,W,18.89,89.98,060220,0.0,E,A*28
$GPGGA,150840.00,3932.0397259,N,12219.5760480,W,1,09,1.0,81.815,M,0.000,M,0.0,*5C
$GPGSA,A,3,01,03,10,11,14,18,22,31,32,,,,2.0,1.1,1.7,1*27
$GPGSV,3,1,09,01,58,281,54,03,27,303,47,10,15,108,46,11,37,234,50,1*66
$GPGSV,3,2,09,14,62,038,52,18,59,228,52,22,51,310,53,31,59,129,53,1*69
$GPGSV,3,3,09,32,36,054,50,,,,,,,,,,,,,1*5D
$GPRMC,150841.00,A,3932.0399171,N,12219.5691051,W,18.90,89.17,060220,0.0,E,A*26
$GPGGA,150841.00,3932.0399171,N,12219.5691051,W,1,09,1.0,83.174,M,0.000,M,0.0,*51
$GPGSA,A,3,01,03,10,11,14,18,22,31,32,,,,2.0,1.1,1.7,1*27
$GPGSV,3,1,09,01,58,281,54,03,27,303,48,10,15,108,47,11,37,234,50,1*68
$GPGSV,3,2,09,14,62,038,52,18,59,228,52,22,51,310,52,31,59,129,55,1*6E
$GPGSV,3,3,09,32,36,054,50,,,,,,,,,,,,,1*5D
$GPRMC,150842.00,A,3932.0396051,N,12219.5623976,W,18.99,89.76,060220,0.0,E,A*22
$GPGGA,150842.00,3932.0396051,N,12219.5623976,W,1,09,1.0,84.072,M,0.000,M,0.0,*5B
$GPGSA,A,3,01,03,10,11,14,18,22,31,32,,,,2.0,1.1,1.7,1*27
$GPGSV,3,1,09,01,58,281,55,03,27,303,48,10,15,108,47,11,37,234,50,1*69
$GPGSV,3,2,09,14,62,038,52,18,59,228,52,22,51,310,52,31,59,129,54,1*6F
$GPGSV,3,3,09,32,36,054,50,,,,,,,,,,,,,1*5D
$GPRMC,150843.00,A,3932.0399443,N,12219.5554584,W,19.28,90.29,060220,0.0,E,A*20
$GPGGA,150843.00,3932.0399443,N,12219.5554584,W,1,09,1.0,83.584,M,0.000,M,0.0,*5B
$GPGSA,A,3,01,03,10,11,14,18,22,31,32,,,,2.0,1.1,1.7,1*27
$GPGSV,3,1,09,01,58,281,54,03,27,303,49,10,15,108,47,11,37,234,50,1*69
$GPGSV,3,2,09,14,62,038,52,18,59,228,52,22,51,310,51,31,59,129,54,1*6C
$GPGSV,3,3,09,32,36,054,48,,,,,,,,,,,,,1*54
$GPRMC,150844.00,A,3932.0395704,N,12219.5482421,W,19.39,90.44,060220,0.0,E,A*24
$GPGGA,150844.00,3932.0395704,N,12219.5482421,W,1,09,1.0,83.876,M,0.000,M,0.0,*54
$GPGSA,A,3,01,03,10,11,14,18,22,31,32,,,,2.0,1.1,1.7,1*27
$GPGSV,3,1,09,01,58,281,52,03,27,303,49,10,15,108,47,11,37,234,50,1*6F
$GPGSV,3,2,09,14,62,038,52,18,59,228,51,22,51,310,51,31,59,129,53,1*68
$GPGSV,3,3,09,32,36,054,49,,,,,,,,,,,,,1*55
$GPRMC,150845.00,A,3932.0398317,N,12219.5411969,W,19.95,90.47,060220,0.0,E,A*20
$GPGGA,150845.00,3932.0398317,N,12219.5411969,W,1,09,1.0,83.526,M,0.000,M,0.0,*5D
$GPGSA,A,3,01,03,10,11,14,18,22,31,32,,,,2.0,1.1,1.7,1*27
$GPGSV,3,1,09,01,58,281,53,03,27,303,49,10,15,108,48,11,37,234,49,1*69
$GPGSV,3,2,09,14,62,038,52,18,59,228,52,22,51,310,52,31,59,129,54,1*6F
$GPGSV,3,3,09,32,36,054,49,,,,,,,,,,,,,1*55
$GPRMC,150846.00,A,3932.0397998,N,12219.5343090,W,19.52,91.75,060220,0.0,E,A*25
$GPGGA,150846.00,3932.0397998,N,12219.5343090,W,1,09,1.0,84.239,M,0.000,M,0.0,*5D
$GPGSA,A,3,01,03,10,11,14,18,22,31,32,,,,2.0,1.1,1.7,1*27
$GPGSV,3,1,09,01,58,281,53,03,27,303,50,10,15,108,47,11,37,234,49,1*6E
$GPGSV,3,2,09,14,62,038,52,18,59,228,52,22,51,310,52,31,59,129,54,1*6F
$GPGSV,3,3,09,32,36,054,50,,,,,,,,,,,,,1*5D
$GPRMC,150847.00,A,3932.0395846,N,12219.5273970,W,19.66,89.51,060220,0.0,E,A*29
$GPGGA,150847.00,3932.0395846,N,12219.5273970,W,1,09,1.0,83.502,M,0.000,M,0.0,*51
$GPGSA,A,3,01,03,10,11,14,18,22,31,32,,,,2.0,1.1,1.7,1*27
$GPGSV,3,1,09,01,58,281,53,03,27,303,50,10,15,108,47,11,37,234,48,1*6F
$GPGSV,3,2,09,14,62,038,53,18,59,228,54,22,51,310,51,31,59,129,54,1*6B
$GPGSV,3,3,09,32,36,054,49,,,,,,,,,,,,,1*55
$GPRMC,150848.00,A,3932.0391997,N,12219.5204745,W,19.23,88.33,060220,0.0,E,A*23
$GPGGA,150848.00,3932.0391997,N,12219.5204745,W,1,09,1.0,82.199,M,0.000,M,0.0,*58
$GPGSA,A,3,01,03,10,11,14,18,22,31,32,,,,2.0,1.1,1.7,1*27
$GPGSV,3,1,09,01,58,281,52,03,27,303,48,10,15,108,46,11,37,234,49,1*67
$GPGSV,3,2,09,14,62,038,53,18,59,228,53,22,51,310,51,31,59,129,54,1*6C
$GPGSV,3,3,09,32,36,054,49,,,,,,,,,,,,,1*55
$GPRMC,150849.00,A,3932.0397174,N,12219.5135126,W,19.37,89.25,060220,0.0,E,A*20
$GPGGA,150849.00,3932.0397174,N,12219.5135126,W,1,09,1.0,85.152,M,0.000,M,0.0,*58
$GPGSA,A,3,01,03,10,11,14,18,22,31,32,,,,2.0,1.1,1.7,1*27
$GPGSV,3,1,09,01,58,281,53,03,27,303,48,10,15,108,46,11,37,234,50,1*6E
$GPGSV,3,2,09,14,62,038,54,18,59,228,53,22,51,310,53,31,59,129,54,1*69
$GPGSV,3,3,09,32,36,054,49,,,,,,,,,,,,,1*55
$GPRMC,150850.00,A,3932.0396304,N,12219.5059797,W,19.48,88.55,060220,0.0,E,A*25
$GPGGA,150850.00,3932.0396304,N,12219.5059797,W,1,09,1.0,82.952,M,0.000,M,0.0,*5C
$GPGSA,A,3,01,03,10,11,14,18,22,31,32,,,,2.0,1.1,1.7,1*27
$GPGSV,3,1,09,01,58,281,54,03,27,303,48,10,15,108,46,11,37,234,50,1*69
$GPGSV,3,2,09,14,62,038,54,18,59,228,53,22,51,310,52,31,59,129,53,1*6F
$GPGSV,3,3,09,32,36,054,49,,,,,,,,,,,,,1*55
$GPRMC,150851.00,A,3932.0399368,N,12219.4993203,W,19.75,89.12,060220,0.0,E,A*2B
$GPGGA,150851.00,3932.0399368,N,12219.4993203,W,1,09,1.0,82.940,M,0.000,M,0.0,*5D
$GPGSA,A,3,01,03,10,11,14,18,22,31,32,,,,2.0,1.1,1.7,1*27
$GPGSV,3,1,09,01,58,281,53,03,27,303,49,10,15,108,45,11,37,234,50,1*6C
$GPGSV,3,2,09,14,62,038,54,18,59,228,54,22,51,310,53,31,59,129,53,1*69
$GPGSV,3,3,09,32,36,054,49,,,,,,,,,,,,,1*55
$GPRMC,150852.00,A,3932.0399388,N,12219.4922025,W,18.97,89.64,060220,0.0,E,A*26
$GPGGA,150852.00,3932.0399388,N,12219.4922025,W,1,09,1.0,82.191,M,0.000,M,0.0,*58
$GPGSA,A,3,01,03,10,11,14,18,22,31,32,,,,2.0,1.1,1.7,1*27
$GPGSV,3,1,09,01,58,281,53,03,27,303,51,10,15,108,45,11,37,234,50,1*65
$GPGSV,3,2,09,14,62,038,54,18,59,228,54,22,51,310,52,31,59,129,52,1*69
$GPGSV,3,3,09,32,36,054,49,,,,,,,,,,,,,1*55
$GPRMC,150853.00,A,3932.0399487,N,12219.4855162,W,19.51,88.47,060220,0.0,E,A*27
$GPGGA,150853.00,3932.0399487,N,12219.4855162,W,1,09,1.0,83.610,M,0.000,M,0.0,*5D
$GPGSA,A,3,01,03,10,11,14,18,22,31,32,,,,2.0,1.1,1.7,1*27
$GPGSV,3,1,09,01,58,281,52,03,27,303,50,10,15,108,46,11,37,234,50,1*66
$GPGSV,3,2,09,14,62,038,55,18,59,228,54,22,51,310,53,31,59,129,52,1*69
$GPGSV,3,3,09,32,36,054,49,,,,,,,,,,,,,1*55
$GPRMC,150854.00,A,3932.0394726,N,12219.4786713,W,19.23,89.60,060220,0.0,E,A*25
$GPGGA,150854.00,3932.0394726,N,12219.4786713,W,1,09,1.0,81.146,M,0.000,M,0.0,*58
$GPGSA,A,3,01,03,10,11,14,18,22,31,32,,,,2.0,1.1,1.7,1*27
$GPGSV,3,1,09,01,58,281,52,03,27,303,50,10,15,108,46,11,37,234,50,1*66
$GPGSV,3,2,09,14,62,039,54,18,59,228,54,22,51,310,52,31,59,129,52,1*68
$GPGSV,3,3,09,32,36,054,49,,,,,,,,,,,,,1*55
$GPRMC,150855.00,A,3932.0395325,N,12219.4712373,W,19.70,89.85,060220,0.0,E,A*20
$GPGGA,150855.00,3932.0395325,N,12219.4712373,W,1,09,1.0,82.038,M,0.000,M,0.0,*5B
$GPGSA,A,3,01,03,10,11,14,18,22,31,32,,,,2.0,1.1,1.7,1*27
$GPGSV,3,1,09,01,58,281,52,03,27,303,50,10,15,108,46,11,37,234,50,1*66
$GPGSV,3,2,09,14,62,039,54,18,59,228,53,22,51,310,52,31,59,129,51,1*6C
$GPGSV,3,3,09,32,36,054,49,,,,,,,,,,,,,1*55
$GPRMC,150856.00,A,3932.0396602,N,12219.4648893,W,19.29,89.35,060220,0.0,E,A*2C
$GPGGA,150856.00,3932.0396602,N,12219.4648893,W,1,09,1.0,83.121,M,0.000,M,0.0,*58
$GPGSA,A,3,01,03,10,11,14,18,22,31,32,,,,2.0,1.1,1.7,1*27
$GPGSV,3,1,09,01,58,281,53,03,27,303,49,10,15,108,47,11,37,234,48,1*67
$GPGSV,3,2,09,14,62,039,54,18,59,228,53,22,51,310,52,31,59,129,52,1*6F
$GPGSV,3,3,09,32,36,054,50,,,,,,,,,,,,,1*5D
$GPRMC,150857.00,A,3932.0399842,N,12219.4576032,W,19.41,89.58,060220,0.0,E,A*20
$GPGGA,150857.00,3932.0399842,N,12219.4576032,W,1,09,1.0,85.105,M,0.000,M,0.0,*51
$GPGSA,A,3,01,03,10,11,14,18,22,31,32,,,,2.0,1.1,1.7,1*27
$GPGSV,3,1,09,01,58,281,54,03,27,303,49,10,15,108,47,11,37,234,49,1*61
$GPGSV,3,2,09,14,62,039,54,18,59,228,55,22,51,310,53,31,59,129,52,1*68
$GPGSV,3,3,09,32,36,054,50,,,,,,,,,,,,,1*5D
$GPRMC,150858.00,A,3932.0393780,N,12219.4505721,W,19.77,90.02,060220,0.0,E,A*27
$GPGGA,150858.00,3932.0393780,N,12219.4505721,W,1,09,1.0,84.180,M,0.000,M,0.0,*58
$GPGSA,A,3,01,03,10,11,14,18,22,31,32,,,,2.0,1.1,1.7,1*27
$GPGSV,3,1,09,01,58,281,55,03,27,303,50,10,15,108,47,11,37,234,50,1*60
$GPGSV,3,2,09,14,62,039,55,18,59,228,56,22,51,310,52,31,59,129,54,1*6D
$GPGSV,3,3,09,32,36,054,51,,,,,,,,,,,,,1*5C
$GPRMC,150859.00,A,3932.0393097,N,12219.4433599,W,19.41,88.82,060220,0.0,E,A*26
$GPGGA,150859.00,3932.0393097,N,12219.4433599,W,1,09,1.0,82.182,M,0.000,M,0.0,*59
$GPGSA,A,3,01,03,10,11,14,18,22,31,32,,,,2.0,1.1,1.7,1*27
$GPGSV,3,1,09,01,58,281,53,03,27,303,49,10,15,108,47,11,37,234,50,1*6E
$GPGSV,3,2,09,14,62,039,54,18,59,228,55,22,51,310,52,31,59,129,53,1*68
$GPGSV,3,3,09,32,36,054,51,,,,,,,,,,,,,1*5C
$GPRMC,150900.00,A,3932.0396330,N,12219.4368532,W,19.75,89.48,060220,0.0,E,A*28
$GPGGA,150900.00,3932.0396330,N,12219.4368532,W,1,09,1.0,82.445,M,0.000,M,0.0,*59
$GPGSA,A,3,01,03,10,11,14,18,22,31,32,,,,2.0,1.1,1.7,1*27
$GPGSV,3,1,09,01,58,281,52,03,27,303,49,10,15,108,47,11,37,234,50,1*6F
$GPGSV,3,2,09,14,62,039,56,18,59,228,54,22,51,310,52,31,59,129,53,1*6B
$GPGSV,3,3,09,32,36,054,51,,,,,,,,,,,,,1*5C
$GPRMC,150901.00,A,3932.0395724,N,12219.4296458,W,19.08,89.80,060220,0.0,E,A*28
$GPGGA,150901.00,3932.0395724,N,12219.4296458,W,1,09,1.0,84.206,M,0.000,M,0.0,*50
$GPGSA,A,3,01,03,10,11,14,18,22,31,32,,,,2.0,1.1,1.7,1*27
$GPGSV,3,1,09,01,58,281,52,03,27,303,49,10,15,108,47,11,37,234,50,1*6F
$GPGSV,3,2,09,14,62,039,55,18,59,228,54,22,51,310,52,31,59,129,52,1*69
$GPGSV,3,3,09,32,36,054,51,,,,,,,,,,,,,1*5C
$GPRMC,150902.00,A,3932.0395346,N,12219.4226709,W,19.64,91.25,060220,0.0,E,A*2B
$GPGGA,150902.00,3932.0395346,N,12219.4226709,W,1,09,1.0,82.140,M,0.000,M,0.0,*58
$GPGSA,A,3,01,03,10,11,14,18,22,31,32,,,,2.0,1.1,1.7,1*27
$GPGSV,3,1,09,01,58,281,53,03,27,303,48,10,15,108,48,11,37,234,51,1*61
$GPGSV,3,2,09,14,62,039,55,18,59,228,54,22,51,310,52,31,59,129,52,1*69
$GPGSV,3,3,09,32,36,054,52,,,,,,,,,,,,,1*5F
$GPRMC,150903.00,A,3932.0397059,N,12219.4159123,W,19.36,88.47,060220,0.0,E,A*2B
$GPGGA,150903.00,3932.0397059,N,12219.4159123,W,1,09,1.0,85.366,M,0.000,M,0.0,*52
$GPGSA,A,3,01,03,10,11,14,18,22,31,32,,,,2.0,1.1,1.7,1*27
$GPGSV,3,1,09,01,58,281,53,03,27,303,48,10,15,108,48,11,37,234,51,1*61
