     3.02           OBSERVATION DATA    G                   RINEX VERSION / TYPE
G = GPS  R = GLONASS  E = GALILEO  S = GEO  M = MIXED       COMMENT             
GNSS-SDR            UNKNOWN USER        20210328 184304 UTC PGM / RUN BY / DATE 
GPS OBSERVATION DATA FILE GENERATED BY GNSS-SDR             COMMENT             
GNSS-SDR VERSION 0.0.11                                     COMMENT             
See https://gnss-sdr.org                                    COMMENT             
DEFAULT MARKER NAME                                         MARKER NAME         
UNKNOWN USER        CTTC                                    OBSERVER / AGENCY   
GNSS-SDR            Software Receiver   0.0.11              REC # / TYPE / VERS 
Antenna number      Antenna type                            ANT # / TYPE        
        0.0000        0.0000        0.0000                  APPROX POSITION XYZ 
        0.0000        0.0000        0.0000                  ANTENNA: DELTA H/E/N
G    4 C1C L1C D1C S1C                                      SYS / # / OBS TYPES 
DBHZ                                                        SIGNAL STRENGTH UNIT
  2020    02    06    15    06   48.3000000     GPS         TIME OF FIRST OBS   
    18    18   137     7                                    LEAP SECONDS        
                                                            END OF HEADER       
> 2020 02 06 15 06 48.3000000  0  5                                             
G11  22012595.491 8     85567.781 8     -2245.362 8        50.572               
G14  21020043.367 9     53498.146 9     -1401.973 9        54.971               
G18  20679009.061 9     56080.416 9     -1477.200 9        54.963               
G22  21782656.582 8    -76747.789 8      2000.585 8        53.741               
G25  24693861.900 7    -41606.758 7      1076.023 7        47.559               
> 2020 02 06 15 06 48.4000000  0  6                                             
G10  24041640.418 7    108080.706 7     -2821.952 7        47.145               
G11  22012638.609 8     85792.858 8     -2244.563 8        50.565               
G14  21020071.350 9     53638.867 9     -1402.892 9        54.850               
G18  20679036.740 9     56228.612 9     -1476.620 9        54.747               
G22  21782618.593 8    -76947.307 8      1999.622 8        53.800               
G25  24693841.815 7    -41713.920 7      1076.320 7        47.408               
> 2020 02 06 15 06 48.5000000  0  6                                             
G10  24041694.664 7    108363.044 7     -2817.585 7        46.953               
G11  22012682.044 8     86017.934 8     -2245.893 8        50.521               
G14  21020098.649 9     53779.586 9     -1401.694 9        54.829               
G18  20679067.185 9     56376.812 9     -1476.660 9        54.656               
G22  21782582.117 8    -77146.827 8      1999.692 8        53.811               
G25  24693822.155 7    -41821.089 7      1079.601 7        47.324               
> 2020 02 06 15 06 48.6000000  0  6                                             
G10  24041746.319 7    108643.903 7     -2814.488 7        46.726               
G11  22012723.961 8     86241.535 8     -2246.816 8        50.484               
G14  21020123.930 9     53918.827 9     -1401.942 9        54.857               
G18  20679092.858 9     56523.537 9     -1476.871 9        54.699               
G22  21782542.998 8    -77347.823 8      1998.717 8        53.597               
G25  24693800.547 7    -41929.729 7      1079.710 7        47.346               
> 2020 02 06 15 06 48.7000000  0  6                                             
G10  24041801.726 7    108926.935 7     -2819.605 7        46.547               
G11  22012767.217 8     86467.307 8     -2246.946 8        50.319               
G14  21020151.318 9     54060.240 9     -1402.707 9        54.808               
G18  20679122.945 9     56672.436 9     -1477.040 9        54.613               
G22  21782505.486 8    -77546.652 8      1999.071 8        53.176               
G25  24693781.297 7    -42036.188 7      1075.476 7        47.213               
> 2020 02 06 15 06 48.8000000  0  6                                             
G10  24041854.831 7    109208.672 7     -2826.125 7        46.366               
G11  22012809.868 8     86691.786 8     -2246.527 8        50.075               
G14  21020178.817 9     54200.356 9     -1402.606 9        54.801               
G18  20679150.640 9     56820.045 9     -1477.305 9        54.439               
G22  21782468.013 8    -77746.776 8      2001.724 8        52.798               
G25  24693759.906 7    -42143.950 7      1075.306 7        46.996               
> 2020 02 06 15 06 48.9000000  0  6                                             
G10  24041907.776 7    109489.676 7     -2820.951 7        46.180               
G11  22012852.092 8     86915.539 8     -2246.570 8        49.875               
G14  21020204.583 9     54339.743 9     -1400.805 9        54.589               
G18  20679177.157 9     56966.928 9     -1477.968 9        54.230               
G22  21782428.790 8    -77947.628 8      1997.784 8        52.398               
G25  24693738.374 7    -42252.437 7      1078.586 7        46.864               
> 2020 02 06 15 06 49.0000000  0  6                                             
G10  24041963.274 7    109773.942 7     -2820.296 7        46.114               
G11  22012897.905 8     87142.553 8     -2247.283 8        49.749               
G14  21020234.510 9     54482.390 9     -1402.663 9        54.410               
G18  20679209.014 9     57117.072 9     -1477.609 9        54.137               
G22  21782392.905 8    -78145.224 8      1999.799 8        52.090               
G25  24693721.234 7    -42357.659 7      1075.567 7        46.598               
> 2020 02 06 15 06 49.1000000  0  6                                             
G10  24042014.557 7    110053.857 7     -2820.093 7        46.059               
G11  22012939.325 8     87365.222 8     -2247.515 8        49.616               
G14  21020258.383 9     54620.694 9     -1403.008 9        54.378               
G18  20679234.155 9     57262.881 9     -1477.314 9        54.109               
G22  21782353.003 8    -78347.163 8      2000.228 8        51.875               
G25  24693698.790 7    -42467.219 7      1071.436 7        46.363               
> 2020 02 06 15 06 49.2000000  0  6                                             
G10  24042067.868 7    110334.992 7     -2817.437 7        46.082               
G11  22012981.253 8     87589.117 8     -2247.981 8        49.454               
G14  21020284.300 9     54760.217 9     -1402.753 9        54.450               
G18  20679261.430 8     57409.908 8     -1476.856 8        53.979               
G22  21782314.431 8    -78547.882 8      2000.337 8        51.809               
G25  24693677.854 7    -42575.564 7      1076.195 7        46.109               
> 2020 02 06 15 06 49.3000000  0  6                                             
G10  24042123.055 7    110618.345 7     -2820.297 7        45.987               
G11  22013025.111 8     87815.229 8     -2244.757 8        49.322               
G14  21020313.113 9     54901.954 9     -1402.706 9        54.649               
G18  20679291.762 8     57559.156 8     -1477.606 8        53.939               
G22  21782277.843 8    -78746.389 8      1998.562 8        51.690               
G25  24693659.118 7    -42681.694 7      1074.726 7        46.068               
> 2020 02 06 15 06 49.4000000  0  6                                             
G10  24042176.360 7    110899.929 7     -2821.130 7        45.966               
G11  22013067.642 8     88039.578 8     -2246.657 8        49.301               
G14  21020339.508 9     55041.926 9     -1402.592 9        54.888               
G18  20679319.157 9     57706.646 9     -1477.532 9        54.001               
G22  21782239.338 8    -78946.661 8      1999.017 8        51.643               
G25  24693638.267 7    -42789.580 7      1072.892 7        45.955               
> 2020 02 06 15 06 49.5000000  0  6                                             
G10  24042230.429 7    111182.250 7     -2821.765 7        46.062               
G11  22013110.274 8     88264.659 8     -2246.067 8        49.384               
G14  21020366.218 9     55182.629 9     -1402.791 9        55.043               
G18  20679347.834 9     57854.863 9     -1477.256 9        54.094               
G22  21782201.523 8    -79146.203 8      1998.892 8        51.644               
G25  24693617.749 7    -42896.739 7      1073.595 7        45.792               
> 2020 02 06 15 06 49.6000000  0  6                                             
G10  24042285.465 7    111464.727 7     -2819.036 7        46.211               
G11  22013153.016 8     88489.912 8     -2247.470 8        49.449               
G14  21020393.272 9     55323.501 9     -1402.052 9        55.122               
G18  20679377.335 9     58003.259 9     -1478.339 9        54.069               
G22  21782163.855 8    -79345.577 8      1999.707 8        51.783               
G25  24693598.182 7    -43003.718 7      1078.900 7        45.641               
> 2020 02 06 15 06 49.7000000  0  6                                             
G10  24042337.885 7    111745.355 7     -2822.283 7        46.313               
G11  22013195.072 8     88713.309 8     -2246.807 8        49.643               
G14  21020418.960 9     55462.518 9     -1402.956 9        55.247               
G18  20679403.345 9     58149.805 9     -1478.118 9        54.105               
G22  21782124.625 8    -79546.807 8      2000.479 8        51.959               
G25  24693576.428 7    -43112.561 7      1076.999 7        45.493               
> 2020 02 06 15 06 49.8000000  0  6                                             
G10  24042391.826 7    112027.393 7     -2820.985 7        46.450               
G11  22013237.755 8     88938.119 8     -2246.200 8        49.970               
G14  21020445.829 9     55602.943 9     -1402.589 9        55.329               
G18  20679432.358 9     58297.753 9     -1478.176 9        54.227               
G22  21782087.273 8    -79746.628 8      1999.832 8        52.142               
G25  24693556.463 7    -43219.981 7      1074.461 7        45.313               
> 2020 02 06 15 06 49.9000000  0  6                                             
G10  24042445.917 7    112309.805 7     -2818.788 7        46.581               
G11  22013281.393 8     89163.314 8     -2247.148 8        50.170               
G14  21020473.223 9     55743.750 9     -1403.036 9        55.245               
G18  20679460.896 9     58446.094 9     -1477.642 9        54.223               
G22  21782049.177 8    -79946.068 8      2000.212 8        52.154               
G25  24693536.469 7    -43327.021 7      1069.491 7        45.177               
> 2020 02 06 15 06 50.0000000  0  6                                             
G10  24042498.777 7    112590.519 7     -2820.719 7        46.645               
G11  22013322.960 8     89386.813 8     -2246.322 8        50.431               
G14  21020497.886 9     55882.857 9     -1402.575 9        55.081               
G18  20679487.846 9     58592.744 9     -1477.662 9        54.056               
G22  21782010.083 8    -80147.208 8      1999.648 8        52.163               
G25  24693513.796 7    -43435.767 7      1080.337 7        45.030               
> 2020 02 06 15 06 50.1000000  0  6                                             
G10  24042551.792 7    112872.043 7     -2819.022 7        46.532               
G11  22013365.003 8     89611.117 8     -2246.774 8        50.728               
G14  21020524.884 9     56022.771 9     -1402.890 9        54.997               
G18  20679514.540 8     58740.195 8     -1477.595 8        53.865               
G22  21781971.824 8    -80347.542 8      2000.405 8        52.321               
G25  24693492.923 7    -43543.689 7      1076.402 7        44.897               
> 2020 02 06 15 06 50.2000000  0  6                                             
G10  24042605.905 7    113154.528 7     -2822.320 7        46.458               
G11  22013408.896 8     89836.388 8     -2247.045 8        50.897               
G14  21020552.087 9     56163.651 9     -1401.494 9        54.877               
G18  20679543.887 8     58888.622 8     -1479.313 8        53.690               
G22  21781934.162 8    -80546.911 8      1999.108 8        52.238               
G25  24693473.416 7    -43650.650 7      1075.413 7        44.711               
> 2020 02 06 15 06 50.3000000  0  6                                             
G10  24042658.956 7    113435.963 7     -2819.465 7        46.281               
G11  22013450.654 8     90060.617 8     -2248.207 8        50.994               
G14  21020578.459 9     56303.482 9     -1402.336 9        54.842               
G18  20679570.850 8     59036.003 8     -1478.089 8        53.638               
G22  21781895.884 8    -80747.332 8      2000.147 8        52.255               
G25  24693453.544 7    -43758.666 7      1073.325 7        44.605               
> 2020 02 06 15 06 50.4000000  0  6                                             
G10  24042711.980 7    113717.761 7     -2821.476 7        46.287               
G11  22013493.689 8     90285.209 8     -2247.060 8        51.026               
G14  21020604.483 9     56443.681 9     -1404.083 9        54.650               
G18  20679598.857 8     59183.752 8     -1478.397 8        53.647               
G22  21781857.616 8    -80947.386 8      1998.776 8        52.482               
G25  24693433.037 7    -43866.296 7      1075.436 7        44.414               
> 2020 02 06 15 06 50.5000000  0  6                                             
G10  24042765.435 7    113999.637 7     -2813.663 7        46.411               
G11  22013536.940 8     90509.885 8     -2246.325 8        50.975               
G14  21020631.653 9     56583.956 9     -1403.604 9        54.485               
G18  20679626.509 8     59331.585 8     -1479.616 8        53.837               
G22  21781819.295 8    -81147.358 8      1998.935 8        52.744               
G25  24693412.389 7    -43973.857 7      1075.694 7        44.228               
> 2020 02 06 15 06 50.6000000  0  6                                             
G10  24042821.394 7    114282.869 7     -2816.081 7        46.351               
G11  22013580.462 8     90735.918 8     -2249.369 8        50.884               
G14  21020660.058 9     56725.583 9     -1403.121 9        54.473               
G18  20679658.005 9     59480.775 9     -1478.404 9        54.139               
G22  21781783.085 8    -81345.983 8      1999.691 8        52.891               
G25  24693392.851 7    -44080.056 7      1070.472 7        44.100               
> 2020 02 06 15 06 50.7000000  0  6                                             
G10  24042873.614 7    114563.644 7     -2818.325 7        46.188               
G11  22013621.836 8     90959.496 8     -2246.952 8        50.771               
G14  21020685.528 9     56864.759 9     -1403.201 9        54.551               
G18  20679683.743 9     59627.514 9     -1478.502 9        54.510               
G22  21781744.013 8    -81547.060 8      1999.557 8        53.138               
G25  24693371.308 7    -44188.715 7      1073.131 7        44.145               
> 2020 02 06 15 06 50.8000000  0  6                                             
G10  24042928.107 7    114846.955 7     -2815.526 7        46.190               
G11  22013666.411 8     91185.609 8     -2246.778 8        50.707               
G14  21020713.735 9     57006.464 9     -1402.966 9        54.575               
G18  20679713.880 9     59776.786 9     -1479.247 9        54.903               
G22  21781706.998 8    -81745.606 8      1998.444 8        53.215               
G25  24693352.734 7    -44294.835 7      1072.787 7        44.231               
> 2020 02 06 15 06 50.9000000  0  6                                             
G10  24042981.743 7    115128.578 7     -2821.035 7        46.119               
G11  22013708.307 8     91410.039 8     -2247.672 8        50.640               
G14  21020739.871 9     57146.486 9     -1402.757 9        54.554               
G18  20679741.696 9     59924.381 9     -1478.487 9        55.230               
G22  21781668.805 8    -81945.838 8      1999.686 8        53.396               
G25  24693332.285 7    -44402.638 7      1077.082 7        44.358               
> 2020 02 06 15 06 51.0000000  0  6                                             
G10  24043036.100 7    115410.859 7     -2823.994 7        45.933               
G11  22013751.658 8     91635.137 8     -2247.971 8        50.496               
G14  21020767.317 9     57287.174 9     -1402.619 9        54.621               
G18  20679771.055 9     60072.644 9     -1478.841 9        55.641               
G22  21781631.423 8    -82145.403 8      1999.255 8        53.575               
G25  24693312.165 7    -44509.772 7      1073.880 7        44.423               
> 2020 02 06 15 06 51.1000000  0  6                                             
G10  24043088.855 7    115691.756 7     -2821.592 7        45.734               
G11  22013792.976 8     91858.860 8     -2247.974 8        50.608               
G14  21020792.590 9     57426.479 9     -1402.530 9        54.408               
G18  20679796.827 9     60219.528 9     -1478.225 9        55.989               
G22  21781591.885 8    -82346.355 8      2000.711 8        53.491               
G25  24693288.654 7    -44618.284 7      1071.326 7        44.478               
> 2020 02 06 15 06 51.2000000  0  6                                             
G10  24043144.116 7    115975.015 7     -2820.690 7        45.673               
G11  22013837.408 8     92084.928 8     -2247.398 8        50.821               
G14  21020820.725 9     57568.137 9     -1402.973 9        54.181               
G18  20679828.251 9     60368.769 9     -1478.455 9        56.271               
G22  21781555.459 8    -82544.952 8      1998.552 8        53.614               
G25  24693269.794 7    -44724.441 7      1075.099 7        44.638               
> 2020 02 06 15 06 51.3000000  0  6                                             
G10  24043196.823 7    116255.822 7     -2818.551 7        45.752               
G11  22013879.644 8     92308.557 8     -2247.201 8        51.066               
G14  21020845.664 9     57707.348 9     -1404.025 9        54.067               
G18  20679855.173 9     60515.570 9     -1479.181 9        56.506               
G22  21781516.248 8    -82745.996 8      1999.841 8        53.696               
G25  24693247.916 7    -44833.045 7      1076.614 7        44.567               
> 2020 02 06 15 06 51.4000000  0  6                                             
G10  24043251.738 7    116538.971 7     -2820.489 7        45.874               
G11  22013923.283 8     92534.532 8     -2247.205 8        51.529               
G14  21020874.490 9     57848.900 9     -1402.602 9        54.089               
G18  20679884.695 9     60664.713 9     -1479.384 9        56.486               
G22  21781479.280 8    -82944.700 8      1999.101 8        53.685               
G25  24693229.871 7    -44939.305 7      1073.239 7        44.475               
> 2020 02 06 15 06 51.5000000  0  6                                             
G10  24043303.106 7    116818.566 7     -2816.966 7        46.077               
G11  22013963.394 8     92756.959 8     -2248.236 8        51.863               
G14  21020898.661 9     57986.908 9     -1402.587 9        54.181               
G18  20679908.259 9     60810.313 9     -1479.662 9        56.335               
G22  21781438.837 8    -83146.950 8      1998.751 8        53.729               
G25  24693206.994 7    -45049.106 7      1075.345 7        44.549               
> 2020 02 06 15 06 51.6000000  0  6                                             
G10  24043358.134 7    117101.844 7     -2819.213 7        46.366               
G11  22014008.130 8     92983.068 8     -2247.374 8        52.039               
G14  21020927.118 9     58128.591 9     -1403.446 9        54.270               
G18  20679939.736 9     60959.595 9     -1478.383 9        56.290               
G22  21781402.662 8    -83345.524 8      1997.656 8        53.740               
G25  24693187.794 7    -45155.227 7      1072.078 7        44.780               
> 2020 02 06 15 06 51.7000000  0  6                                             
G10  24043411.470 7    117383.096 7     -2819.663 7        46.578               
G11  22014049.797 8     93207.151 8     -2247.341 8        52.216               
G14  21020952.292 9     58268.250 9     -1403.239 9        54.345               
G18  20679966.876 9     61106.857 9     -1478.282 9        56.296               
G22  21781363.633 8    -83546.125 8      1998.327 8        53.493               
G25  24693166.705 7    -45263.373 7      1073.996 7        44.958               
> 2020 02 06 15 06 51.8000000  0  6                                             
G10  24043464.760 7    117665.100 7     -2817.645 7        46.730               
G11  22014092.973 8     93431.995 8     -2248.580 8        52.391               
G14  21020979.511 9     58408.664 9     -1402.820 9        54.371               
G18  20679994.810 9     61254.880 9     -1478.848 9        56.311               
G22  21781325.755 8    -83745.969 8      1999.215 8        53.347               
G25  24693146.250 7    -45370.762 7      1073.697 7        45.151               
> 2020 02 06 15 06 51.9000000  0  6                                             
G10  24043516.486 7    117945.472 7     -2820.467 7        47.035               
G11  22014133.871 8     93655.208 8     -2247.362 8        52.527               
G14  21021004.488 9     58547.446 9     -1403.666 9        54.367               
G18  20680019.572 9     61401.272 9     -1479.566 9        56.342               
G22  21781286.153 8    -83947.447 8      1998.707 8        53.392               
G25  24693124.517 7    -45479.777 7      1073.788 7        45.327               
> 2020 02 06 15 06 52.0000000  0  6                                             
G10  24043572.404 7    118229.215 7     -2819.527 7        47.493               
G11  22014178.710 8     93881.793 8     -2246.982 8        52.585               
G14  21021033.513 9     58689.601 9     -1403.599 9        54.305               
G18  20680051.170 9     61551.040 9     -1479.231 9        56.420               
G22  21781249.706 8    -84145.554 8      1999.565 8        53.301               
G25  24693106.778 7    -45585.423 7      1075.463 7        45.436               
> 2020 02 06 15 06 52.1000000  0  6                                             
G10  24043625.070 7    118510.466 7     -2818.460 7        47.762               
G11  22014221.334 8     94105.890 8     -2246.044 8        52.608               
G14  21021058.875 9     58829.261 9     -1402.229 9        54.073               
G18  20680078.409 9     61698.318 9     -1480.048 9        56.538               
G22  21781210.847 8    -84346.152 8      1999.954 8        53.179               
G25  24693086.110 7    -45693.552 7      1077.300 7        45.278               
> 2020 02 06 15 06 52.2000000  0  6                                             
G10  24043678.928 7    118792.755 7     -2818.068 7        47.996               
G11  22014264.221 8     94331.035 8     -2247.211 8        52.602               
G14  21021086.198 8     58969.969 8     -1404.049 8        53.799               
G18  20680107.500 9     61846.647 9     -1479.378 9        56.756               
G22  21781173.788 8    -84545.706 8      1998.681 8        53.308               
G25  24693065.419 7    -45800.636 7      1071.720 7        45.258               
> 2020 02 06 15 06 52.3000000  0  6                                             
G10  24043733.273 8    119075.059 8     -2820.137 8        48.101               
G11  22014306.986 8     94556.187 8     -2247.906 8        52.726               
G14  21021113.649 8     59110.681 8     -1403.947 8        53.576               
G18  20680135.488 9     61994.989 9     -1479.607 9        56.811               
G22  21781135.535 8    -84745.256 8      2000.258 8        53.356               
G25  24693044.267 7    -45907.713 7      1075.592 7        45.416               
> 2020 02 06 15 06 52.4000000  0  6                                             
G10  24043786.872 8    119357.287 8     -2817.395 8        48.154               
G11  22014350.990 8     94781.275 8     -2247.734 8        52.938               
G14  21021140.785 8     59251.327 8     -1402.924 8        53.398               
G18  20680164.625 9     62143.262 9     -1479.378 9        56.785               
G22  21781097.966 8    -84944.873 8      2000.156 8        53.382               
G25  24693024.657 7    -46014.853 7      1073.270 7        45.504               
> 2020 02 06 15 06 52.5000000  0  6                                             
G10  24043839.502 8    119638.979 8     -2819.140 8        48.121               
G11  22014392.540 8     95005.824 8     -2247.712 8        53.101               
G14  21021166.879 8     59391.433 8     -1402.734 8        53.391               
G18  20680191.952 9     62290.999 9     -1479.333 9        56.632               
G22  21781060.268 8    -85145.030 8      1999.407 8        53.466               
G25  24693003.970 7    -46122.536 7      1075.049 7        45.820               
> 2020 02 06 15 06 52.6000000  0  6                                             
G10  24043893.341 8    119920.577 8     -2818.579 8        48.201               
G11  22014435.051 8     95230.287 8     -2247.228 8        53.086               
G14  21021192.664 8     59531.449 8     -1403.288 8        53.514               
G18  20680219.881 9     62438.648 9     -1479.953 9        56.319               
G22  21781021.457 8    -85345.280 8      2000.638 8        53.545               
G25  24692984.153 7    -46230.299 7      1072.510 7        46.032               
> 2020 02 06 15 06 52.7000000  0  6                                             
G10  24043947.341 8    120202.731 8     -2819.577 8        48.379               
G11  22014478.294 8     95455.303 8     -2249.486 8        53.034               
G14  21021220.361 8     59672.019 8     -1404.093 8        53.749               
G18  20680247.864 9     62586.862 9     -1480.677 9        56.120               
G22  21780983.342 8    -85544.976 8      1998.949 8        53.604               
G25  24692963.639 7    -46337.509 7      1072.125 7        45.988               
> 2020 02 06 15 06 52.8000000  0  6                                             
G10  24044001.762 8    120484.832 8     -2816.828 8        48.528               
G11  22014521.099 8     95680.275 8     -2248.028 8        53.112               
G14  21021247.442 8     59812.540 8     -1403.159 8        53.920               
G18  20680277.464 9     62735.031 9     -1479.915 9        56.035               
G22  21780946.202 8    -85744.718 8      1999.727 8        53.713               
G25  24692941.884 7    -46444.762 7      1074.196 7        45.946               
> 2020 02 06 15 06 52.9000000  0  6                                             
G10  24044055.866 8    120767.075 8     -2820.038 8        48.635               
G11  22014564.911 8     95905.390 8     -2248.905 8        53.158               
G14  21021274.599 9     59953.202 9     -1403.288 9        54.158               
G18  20680306.212 9     62883.343 9     -1479.714 9        55.975               
G22  21780908.030 8    -85944.322 8      1999.689 8        53.876               
G25  24692921.868 7    -46551.876 7      1074.809 7        45.826               
> 2020 02 06 15 06 53.0000000  0  6                                             
G10  24044108.805 8    121048.211 8     -2816.156 8        48.544               
G11  22014605.717 8     96129.404 8     -2247.819 8        53.226               
G14  21021299.574 9     60092.760 9     -1403.344 9        54.186               
G18  20680332.705 9     63030.550 9     -1480.143 9        55.955               
G22  21780869.086 8    -86145.032 8      1999.356 8        53.948               
G25  24692900.418 7    -46660.086 7      1077.134 7        45.652               
> 2020 02 06 15 06 53.1000000  0  6                                             
G10  24044160.018 8    121328.808 8     -2819.829 8        48.522               
G11  22014647.245 8     96352.873 8     -2248.306 8        53.201               
G14  21021325.091 9     60231.773 9     -1404.586 9        54.277               
G18  20680357.526 9     63177.218 9     -1480.569 9        56.033               
G22  21780829.900 8    -86346.285 8      1998.911 8        53.864               
G25  24692878.869 7    -46768.846 7      1074.231 7        45.576               
> 2020 02 06 15 06 53.2000000  0  6                                             
G10  24044214.040 8    121611.119 8     -2817.206 8        48.370               
G11  22014691.135 8     96578.066 8     -2247.732 8        53.130               
G14  21021352.488 9     60372.509 9     -1403.249 9        54.310               
G18  20680385.852 9     63325.615 9     -1480.403 9        55.972               
G22  21780791.522 8    -86545.815 8      1999.649 8        53.677               
G25  24692859.735 7    -46875.880 7      1078.250 7        45.518               
> 2020 02 06 15 06 53.3000000  0  6                                             
G10  24044270.082 8    121894.921 8     -2820.701 8        48.150               
G11  22014735.491 8     96804.748 8     -2247.679 8        53.060               
G14  21021381.655 9     60514.729 9     -1403.637 9        54.482               
G18  20680417.717 9     63475.499 9     -1479.661 9        55.914               
G22  21780755.574 8    -86743.864 8      1999.848 8        53.522               
G25  24692841.388 7    -46981.420 7      1071.576 7        45.533               
> 2020 02 06 15 06 53.4000000  0  6                                             
G10  24044324.274 7    122177.083 7     -2817.404 7        47.940               
G11  22014778.694 8     97029.799 8     -2248.089 8        53.166               
G14  21021408.133 9     60655.314 9     -1403.853 9        54.514               
G18  20680447.804 9     63623.756 9     -1479.477 9        55.833               
G22  21780718.437 8    -86943.546 8      1998.589 8        53.501               
G25  24692820.548 7    -47088.594 7      1071.208 7        45.590               
> 2020 02 06 15 06 53.5000000  0  6                                             
G10  24044378.644 7    122459.827 7     -2818.936 7        47.897               
G11  22014822.646 8     97255.435 8     -2246.764 8        53.241               
G14  21021435.824 9     60796.486 9     -1403.136 9        54.524               
G18  20680477.122 9     63772.597 9     -1479.801 9        55.806               
G22  21780680.817 8    -87142.645 8      1998.523 8        53.468               
G25  24692800.940 7    -47195.188 7      1076.560 7        45.551               
> 2020 02 06 15 06 53.6000000  0  6                                             
G10  24044431.534 7    122740.440 7     -2821.883 7        47.894               
G11  22014864.260 8     97478.944 8     -2250.651 8        53.096               
G14  21021461.124 9     60935.526 9     -1403.436 9        54.579               
G18  20680502.833 9     63919.310 9     -1480.617 9        55.764               
G22  21780640.967 8    -87343.878 8      1999.908 8        53.378               
G25  24692779.691 7    -47303.900 7      1078.130 7        45.381               
> 2020 02 06 15 06 53.7000000  0  6                                             
G10  24044483.058 7    123020.361 7     -2818.008 7        47.810               
G11  22014905.045 8     97701.759 8     -2247.882 8        53.143               
G14  21021485.451 9     61073.873 9     -1403.449 9        54.721               
G18  20680527.195 9     64065.338 9     -1481.089 9        55.660               
G22  21780600.822 8    -87545.800 8      1998.885 8        53.316               
G25  24692757.809 7    -47413.308 7      1075.990 7        45.186               
> 2020 02 06 15 06 53.8000000  0  6                                             
G10  24044535.810 7    123301.836 7     -2818.394 7        47.801               
G11  22014946.468 8     97926.136 8     -2249.338 8        53.146               
G14  21021511.329 9     61213.775 9     -1404.312 9        54.907               
G18  20680553.627 9     64212.923 9     -1480.837 9        55.478               
G22  21780562.175 8    -87746.170 8      2000.370 8        53.360               
G25  24692737.335 7    -47521.158 7      1069.647 7        45.040               
> 2020 02 06 15 06 53.9000000  0  6                                             
G10  24044590.559 7    123584.862 7     -2821.143 7        47.757               
G11  22014990.317 8     98152.061 8     -2248.749 8        53.137               
G14  21021538.952 9     61355.229 9     -1404.696 9        54.997               
G18  20680583.985 9     64362.064 9     -1481.195 9        55.367               
G22  21780525.203 8    -87944.988 8      1998.428 8        53.370               
G25  24692717.391 7    -47627.460 7      1078.338 7        44.963               
> 2020 02 06 15 06 54.0000000  0  6                                             
G10  24044643.392 7    123866.420 7     -2818.335 7        47.727               
G11  22015033.036 8     98376.532 8     -2249.321 8        53.101               
G14  21021565.571 9     61495.217 9     -1403.627 9        54.856               
G18  20680612.016 9     64509.744 9     -1480.179 9        55.347               
G22  21780487.636 8    -88145.269 8      1998.721 8        53.203               
G25  24692694.906 7    -47735.211 7      1075.401 7        44.949               
> 2020 02 06 15 06 54.1000000  0  6                                             
G10  24044699.064 7    124149.955 7     -2819.322 7        47.785               
G11  22015076.467 8     98602.969 8     -2249.381 8        52.962               
G14  21021594.225 9     61637.180 9     -1403.227 9        54.877               
G18  20680642.492 9     64659.400 9     -1480.469 9        55.275               
G22  21780450.942 8    -88343.581 8      1998.727 8        53.126               
G25  24692676.510 7    -47840.999 7      1073.403 7        45.081               
> 2020 02 06 15 06 54.2000000  0  6                                             
G10  24044751.792 7    124430.923 7     -2820.255 7        47.961               
G11  22015119.171 8     98826.851 8     -2249.809 8        52.760               
G14  21021619.703 9     61776.578 9     -1404.143 9        54.985               
G18  20680669.060 9     64806.498 9     -1480.513 9        55.114               
G22  21780411.466 8    -88544.458 8      2000.484 8        53.125               
G25  24692655.064 7    -47949.337 7      1072.999 7        45.227               
> 2020 02 06 15 06 54.3000000  0  6                                             
G10  24044804.467 8    124711.891 8     -2818.030 8        48.040               
G11  22015160.964 8     99050.736 8     -2248.910 8        52.641               
G14  21021644.503 9     61915.981 9     -1403.725 9        55.081               
G18  20680696.450 9     64953.602 9     -1480.789 9        55.021               
G22  21780372.849 8    -88745.328 8      1998.009 8        53.272               
G25  24692634.083 7    -48057.674 7      1070.740 7        45.545               
> 2020 02 06 15 06 54.4000000  0  6                                             
G10  24044858.969 8    124994.884 8     -2818.901 8        48.112               
G11  22015204.512 8     99276.643 8     -2247.697 8        52.546               
G14  21021673.130 9     62057.406 9     -1403.454 9        55.204               
G18  20680725.524 9     65102.733 9     -1480.918 9        54.960               
G22  21780335.718 8    -88944.178 8      1999.111 8        53.273               
G25  24692614.732 7    -48163.990 7      1074.439 7        45.481               
> 2020 02 06 15 06 54.5000000  0  6                                             
G10  24044914.277 8    125278.342 8     -2818.603 8        48.305               
G11  22015249.474 8     99503.026 8     -2248.319 8        52.448               
G14  21021701.813 9     62199.302 9     -1404.624 9        55.341               
G18  20680756.942 9     65252.338 9     -1481.569 9        54.975               
G22  21780299.287 8    -89142.561 8      1999.117 8        53.017               
G25  24692595.169 7    -48269.826 7      1070.002 7        45.559               
> 2020 02 06 15 06 54.6000000  0  6                                             
G10  24044968.071 8    125560.297 8     -2818.255 8        48.341               
G11  22015291.939 8     99727.908 8     -2247.579 8        52.368               
G14  21021728.643 9     62339.692 9     -1403.543 9        55.470               
G18  20680785.522 9     65400.443 9     -1481.571 9        55.131               
G22  21780261.752 8    -89342.445 8      1999.492 8        52.658               
G25  24692574.485 7    -48377.174 7      1074.069 7        45.708               
> 2020 02 06 15 06 54.7000000  0  6                                             
G10  24045023.788 8    125843.805 8     -2819.874 8        48.272               
G11  22015335.845 8     99954.339 8     -2248.969 8        52.275               
G14  21021756.895 9     62481.634 9     -1404.567 9        55.523               
G18  20680816.794 9     65550.102 9     -1480.821 9        55.286               
G22  21780225.211 8    -89540.780 8      1998.293 8        52.349               
G25  24692555.581 7    -48482.957 7      1072.259 7        45.869               
> 2020 02 06 15 06 54.8000000  0  6                                             
G10  24045076.934 8    126125.629 8     -2818.589 8        48.314               
G11  22015379.091 8    100179.093 8     -2249.644 8        52.123               
G14  21021783.541 9     62621.891 9     -1404.254 9        55.667               
G18  20680844.370 9     65698.082 9     -1481.631 9        55.523               
G22  21780186.725 8    -89740.801 8      1998.695 8        52.216               
G25  24692536.179 7    -48590.428 7      1072.089 7        45.853               
> 2020 02 06 15 06 54.9000000  0  6                                             
G10  24045130.254 8    126407.207 8     -2821.088 8        48.274               
G11  22015420.672 8    100403.607 8     -2247.205 8        51.790               
G14  21021810.094 9     62761.910 9     -1403.441 9        55.868               
G18  20680871.762 9     65845.826 9     -1482.002 9        55.564               
G22  21780148.824 8    -89941.059 8      1998.831 8        52.229               
G25  24692516.075 7    -48698.132 7      1072.147 7        45.811               
> 2020 02 06 15 06 55.0000000  0  6                                             
G10  24045181.278 8    126687.004 8     -2817.284 8        48.280               
G11  22015460.902 8    100626.342 8     -2248.762 8        51.471               
G14  21021834.099 9     62900.145 9     -1404.957 9        55.947               
G18  20680894.785 9     65991.789 9     -1481.073 9        55.558               
G22  21780107.983 8    -90143.103 8      1998.615 8        52.198               
G25  24692493.300 7    -48807.621 7      1072.076 7        45.784               
> 2020 02 06 15 06 55.1000000  0  6                                             
G10  24045233.716 8    126967.252 8     -2818.035 8        48.377               
G11  22015502.780 8    100849.527 8     -2250.270 8        51.215               
G14  21021858.698 9     63038.834 9     -1404.109 9        55.988               
G18  20680920.081 9     66138.211 9     -1482.163 9        55.471               
G22  21780067.520 8    -90344.696 8      1999.212 8        52.187               
G25  24692469.509 7    -48916.646 7      1068.203 7        45.670               
> 2020 02 06 15 06 55.2000000  0  6                                             
G10  24045284.566 8    127246.495 8     -2822.001 8        48.394               
G11  22015542.016 8    101071.710 8     -2249.027 8        51.028               
G14  21021881.690 9     63176.508 9     -1403.619 9        55.920               
G18  20680943.037 9     66283.622 9     -1481.462 9        55.385               
G22  21780026.685 8    -90547.297 8      1999.591 8        52.127               
G25  24692446.042 7    -49026.693 7      1072.861 7        45.629               
> 2020 02 06 15 06 55.3000000  0  6                                             
G10  24045338.644 8    127529.752 8     -2817.173 8        48.169               
G11  22015586.659 8    101297.922 8     -2247.876 8        50.893               
G14  21021910.644 9     63318.219 9     -1404.740 9        55.717               
G18  20680972.509 9     66433.076 9     -1481.495 9        55.338               
G22  21779989.809 8    -90745.869 8      1995.993 8        51.887               
G25  24692427.464 7    -49132.695 7      1073.622 7        45.708               
> 2020 02 06 15 06 55.4000000  0  6                                             
G10  24045390.713 8    127810.478 8     -2820.404 8        48.124               
G11  22015628.274 8    101521.597 8     -2248.607 8        50.734               
G14  21021935.749 9     63457.383 9     -1404.236 9        55.695               
G18  20680998.007 9     66579.986 9     -1482.883 9        55.186               
G22  21779950.264 8    -90946.987 8      1999.402 8        51.646               
G25  24692406.056 7    -49241.252 7      1075.113 7        45.910               
> 2020 02 06 15 06 55.5000000  0  6                                             
G10  24045444.802 8    128093.774 8     -2819.086 8        48.172               
G11  22015672.213 8    101747.842 8     -2249.124 8        50.601               
G14  21021963.713 9     63599.123 9     -1404.394 9        55.732               
G18  20681029.384 9     66729.472 9     -1482.097 9        55.015               
G22  21779914.846 8    -91145.530 8      1999.650 8        51.614               
G25  24692387.810 7    -49347.212 7      1069.573 7        45.897               
> 2020 02 06 15 06 55.6000000  0  6                                             
G10  24045497.715 8    128375.359 8     -2820.747 8        48.356               
G11  22015715.191 8    101972.382 8     -2248.862 8        50.573               
G14  21021989.215 9     63739.148 9     -1404.724 9        55.810               
G18  20681057.048 9     66877.250 9     -1481.818 9        55.047               
G22  21779876.056 8    -91345.786 8      1997.342 8        51.647               
G25  24692366.496 7    -49454.899 7      1071.946 7        45.939               
> 2020 02 06 15 06 55.7000000  0  6                                             
G10  24045554.343 8    128659.754 8     -2822.807 8        48.420               
G11  22015760.151 8    102199.731 8     -2250.161 8        50.494               
G14  21022019.469 9     63881.984 9     -1402.762 9        55.636               
G18  20681089.303 9     67027.843 9     -1482.260 9        55.133               
G22  21779840.337 8    -91543.232 8      1998.609 8        51.676               
G25  24692347.753 7    -49559.766 7      1069.661 7        45.932               
> 2020 02 06 15 06 55.8000000  0  6                                             
G10  24045606.844 8    128940.337 8     -2820.055 8        48.462               
G11  22015801.144 8    102423.277 8     -2248.967 8        50.469               
G14  21022044.612 9     64021.014 9     -1404.124 9        55.355               
G18  20681115.358 9     67174.634 9     -1481.815 9        55.308               
G22  21779801.330 8    -91744.487 8      1998.711 8        51.701               
G25  24692325.382 7    -49668.440 7      1074.782 7        45.918               
> 2020 02 06 15 06 55.9000000  0  6                                             
G10  24045662.091 8    129223.915 8     -2819.889 8        48.379               
G11  22015846.152 8    102649.826 8     -2250.729 8        50.370               
G14  21022073.502 9     64163.045 9     -1404.957 9        55.212               
G18  20681146.642 9     67324.428 9     -1481.574 9        55.326               
G22  21779764.927 8    -91942.741 8      1998.144 8        51.763               
G25  24692307.384 7    -49774.110 7      1072.214 7        45.929               
> 2020 02 06 15 06 56.0000000  0  6                                             
G10  24045716.022 8    129506.045 8     -2821.373 8        48.346               
G11  22015888.539 8    102874.920 8     -2248.703 8        50.307               
G14  21022099.682 9     64303.619 9     -1404.381 9        55.206               
G18  20681174.770 9     67472.770 9     -1482.120 9        55.278               
G22  21779726.528 8    -92142.452 8      1998.052 8        51.737               
G25  24692287.855 7    -49881.235 7      1070.572 7        45.898               
> 2020 02 06 15 06 56.1000000  0  6                                             
G10  24045769.743 8    129787.926 8     -2822.969 8        48.231               
G11  22015931.432 8    103099.770 8     -2250.259 8        50.188               
G14  21022126.636 9     64443.947 9     -1404.558 9        55.345               
G18  20681203.457 9     67620.868 9     -1482.972 9        55.291               
G22  21779688.975 8    -92342.409 8      1997.481 8        51.774               
G25  24692267.438 7    -49988.601 7      1074.913 7        45.865               
> 2020 02 06 15 06 56.2000000  0  6                                             
G10  24045822.578 8    130069.390 8     -2821.074 8        48.181               
G11  22015973.617 8    103324.211 8     -2248.324 8        50.184               
G14  21022153.113 9     64583.864 9     -1405.088 9        55.568               
G18  20681229.738 9     67768.558 9     -1481.876 9        55.276               
G22  21779650.070 8    -92542.778 8      1997.888 8        51.782               
G25  24692245.562 7    -50096.380 7      1071.274 7        45.828               
> 2020 02 06 15 06 56.3000000  0  6                                             
G10  24045877.512 8    130352.018 8     -2821.612 8        48.016               
G11  22016016.936 8    103549.817 8     -2250.549 8        50.133               
G14  21022180.637 9     64724.942 9     -1404.814 9        55.668               
G18  20681259.192 9     67917.415 9     -1481.945 9        55.285               
G22  21779612.389 8    -92741.989 8      2000.372 8        51.793               
G25  24692225.679 7    -50202.988 7      1070.596 7        45.866               
> 2020 02 06 15 06 56.4000000  0  6                                             
G10  24045928.943 7    130631.912 7     -2818.757 7        47.943               
G11  22016057.771 8    103772.690 8     -2248.401 8        50.120               
G14  21022204.639 9     64863.287 9     -1404.097 9        55.670               
G18  20681283.962 9     68063.543 9     -1482.149 9        55.389               
G22  21779572.438 8    -92943.929 8      1998.602 8        51.829               
G25  24692202.614 7    -50312.332 7      1074.812 7        45.964               
> 2020 02 06 15 06 56.5000000  0  6                                             
G10  24045983.271 7    130914.325 7     -2821.834 7        47.825               
G11  22016100.591 8    103998.081 8     -2250.199 8        50.130               
G14  21022231.466 9     65004.147 9     -1404.271 9        55.671               
G18  20681312.844 9     68212.193 9     -1481.870 9        55.478               
G22  21779534.562 8    -93143.357 8      1997.799 8        51.892               
G25  24692183.178 7    -50419.159 7      1072.066 7        46.142               
> 2020 02 06 15 06 56.6000000  0  6                                             
G10  24046036.594 7    131196.030 7     -2819.637 7        47.628               
G11  22016143.229 8    104222.773 8     -2249.921 8        50.061               
G14  21022258.415 9     65144.305 9     -1404.862 9        55.675               
G18  20681339.632 9     68360.140 9     -1482.105 9        55.509               
G22  21779495.770 8    -93343.488 8      1997.744 8        51.865               
G25  24692163.167 7    -50526.681 7      1074.316 7        46.165               
> 2020 02 06 15 06 56.7000000  0  6                                             
G10  24046088.896 7    131476.647 7     -2821.814 7        47.491               
G11  22016184.934 8    104446.376 8     -2249.051 8        50.012               
G14  21022283.377 9     65283.372 9     -1404.309 9        55.589               
G18  20681366.238 9     68507.001 9     -1482.543 9        55.414               
G22  21779456.886 8    -93544.710 8      1998.190 8        51.797               
G25  24692140.330 7    -50635.296 7      1073.213 7        46.215               
> 2020 02 06 15 06 56.8000000  0  6                                             
G10  24046142.953 7    131759.207 7     -2819.376 7        47.301               
G11  22016227.645 8    104671.929 8     -2248.302 8        49.966               
G14  21022310.810 9     65424.388 9     -1404.532 9        55.548               
G18  20681394.618 9     68655.816 9     -1482.886 9        55.277               
G22  21779419.204 8    -93743.985 8      1999.646 8        51.576               
G25  24692120.124 7    -50741.957 7      1070.466 7        46.153               
> 2020 02 06 15 06 56.9000000  0  6                                             
G10  24046196.880 7    132041.302 7     -2820.282 7        47.093               
G11  22016270.815 8    104897.020 8     -2249.987 8        49.855               
G14  21022336.968 9     65564.939 9     -1404.842 9        55.620               
G18  20681423.153 9     68804.169 9     -1482.923 9        55.120               
G22  21779380.713 8    -93943.723 8      1998.858 8        51.391               
G25  24692100.037 7    -50849.080 7      1076.092 7        46.019               
> 2020 02 06 15 06 57.0000000  0  6                                             
G10  24046249.564 7    132322.790 7     -2820.011 7        46.985               
G11  22016313.188 8    105121.511 8     -2249.542 8        49.668               
G14  21022363.742 9     65704.886 9     -1404.423 9        55.670               
G18  20681450.284 9     68951.922 9     -1482.357 9        55.139               
G22  21779342.747 8    -94144.066 8      1998.478 8        51.534               
G25  24692079.297 7    -50956.809 7      1073.284 7        46.019               
> 2020 02 06 15 06 57.1000000  0  6                                             
G10  24046303.851 7    132605.068 7     -2821.276 7        46.979               
G11  22016356.021 8    105346.795 8     -2249.233 8        49.481               
G14  21022390.761 9     65845.625 9     -1404.660 9        55.681               
G18  20681479.143 9     69100.469 9     -1482.500 9        55.062               
G22  21779304.990 8    -94343.621 8      1999.203 8        51.851               
G25  24692059.589 7    -51063.735 7      1069.768 7        46.156               
> 2020 02 06 15 06 57.2000000  0  6                                             
G10  24046358.237 7    132888.059 7     -2817.504 7        47.007               
G11  22016400.400 8    105572.792 8     -2248.957 8        49.246               
G14  21022418.825 9     65987.076 9     -1404.414 9        55.776               
G18  20681508.816 9     69249.735 9     -1484.272 9        54.951               
G22  21779267.654 8    -94542.461 8      1997.682 8        51.945               
G25  24692040.532 7    -51169.954 7      1074.674 7        46.360               
> 2020 02 06 15 06 57.3000000  0  6                                             
G10  24046411.381 7    133169.373 7     -2816.641 7        47.125               
G11  22016442.233 8    105797.112 8     -2250.041 8        49.195               
G14  21022444.058 9     66126.849 9     -1405.109 9        55.959               
G18  20681536.908 9     69397.323 9     -1483.038 9        54.875               
G22  21779229.541 8    -94742.981 8      1997.450 8        51.914               
G25  24692018.591 7    -51277.847 7      1070.090 7        46.547               
> 2020 02 06 15 06 57.4000000  0  6                                             
G10  24046466.068 7    133452.402 7     -2820.984 7        47.256               
G11  22016485.967 8    106023.150 8     -2250.277 8        49.280               
G14  21022472.246 9     66268.334 9     -1404.490 9        56.048               
G18  20681566.704 9     69546.627 9     -1482.994 9        54.920               
G22  21779192.525 8    -94941.790 8      1998.279 8        51.964               
G25  24691998.943 7    -51384.022 7      1072.998 7        46.460               
> 2020 02 06 15 06 57.5000000  0  6                                             
G10  24046521.326 7    133735.683 7     -2823.375 7        47.386               
G11  22016531.110 8    106249.443 8     -2251.102 8        49.523               
G14  21022500.807 9     66410.076 9     -1405.359 9        56.015               
G18  20681597.642 9     69696.191 9     -1482.651 9        54.893               
G22  21779155.525 8    -95140.343 8      1996.729 8        52.000               
G25  24691980.026 7    -51489.945 7      1071.152 7        46.342               
> 2020 02 06 15 06 57.6000000  0  6                                             
G10  24046576.624 7    134019.202 7     -2818.036 7        47.407               
G11  22016574.865 8    106475.986 8     -2249.325 8        49.744               
G14  21022529.355 9     66552.062 9     -1404.584 9        56.000               
G18  20681629.281 9     69846.005 9     -1483.363 9        54.926               
G22  21779119.888 8    -95338.650 8      1997.256 8        51.850               
G25  24691961.687 7    -51595.615 7      1072.741 7        46.308               
> 2020 02 06 15 06 57.7000000  0  6                                             
G10  24046632.111 7    134302.652 7     -2819.900 7        47.378               
G11  22016619.487 8    106702.450 8     -2251.810 8        49.899               
G14  21022557.413 9     66693.970 9     -1406.084 9        55.921               
G18  20681661.038 9     69995.745 9     -1482.847 9        55.053               
G22  21779083.420 8    -95537.038 8      1999.315 8        51.812               
G25  24691943.606 7    -51701.359 7      1069.136 7        46.273               
> 2020 02 06 15 06 57.8000000  0  6                                             
G10  24046687.100 7    134585.863 7     -2820.448 7        47.290               
G11  22016664.112 8    106928.686 8     -2251.015 8        49.997               
G14  21022585.420 9     66835.643 9     -1404.918 9        55.845               
G18  20681691.743 9     70145.255 9     -1482.568 9        55.093               
G22  21779046.366 8    -95735.660 8      1997.619 8        52.023               
G25  24691924.278 7    -51807.341 7      1070.465 7        46.177               
> 2020 02 06 15 06 57.9000000  0  6                                             
G10  24046742.414 7    134869.406 7     -2822.070 7        47.328               
G11  22016708.294 8    107155.254 8     -2251.666 8        50.147               
G14  21022614.466 9     66977.651 9     -1403.735 9        55.651               
G18  20681723.398 9     70295.103 9     -1482.450 9        55.071               
G22  21779010.798 8    -95933.948 8      1997.921 8        52.260               
G25  24691904.935 7    -51912.984 7      1071.096 7        46.055               
> 2020 02 06 15 06 58.0000000  0  6                                             
G10  24046796.304 7    135151.338 7     -2818.849 7        47.369               
G11  22016751.302 8    107380.220 8     -2250.077 8        50.267               
G14  21022641.124 9     67118.054 9     -1405.927 9        55.441               
G18  20681751.593 9     70443.352 9     -1483.636 9        55.051               
G22  21778972.431 8    -96133.844 8      1999.360 8        52.314               
G25  24691884.651 7    -52020.229 7      1071.872 7        45.910               
> 2020 02 06 15 06 58.1000000  0  6                                             
G10  24046849.907 7    135433.427 7     -2822.387 7        47.381               
G11  22016794.130 8    107605.339 8     -2249.485 8        50.363               
G14  21022667.888 9     67258.606 9     -1405.333 9        55.395               
G18  20681779.393 9     70591.757 9     -1483.417 9        55.060               
G22  21778934.098 8    -96333.589 8      1998.453 8        52.297               
G25  24691864.795 7    -52127.323 7      1071.628 7        45.772               
> 2020 02 06 15 06 58.2000000  0  6                                             
G10  24046900.576 7    135713.000 7     -2825.264 7        47.443               
G11  22016833.864 8    107827.949 8     -2250.060 8        50.252               
G14  21022690.985 9     67396.648 9     -1404.590 9        55.535               
G18  20681802.830 9     70737.653 9     -1483.341 9        55.172               
G22  21778893.599 8    -96535.846 8      1999.148 8        52.056               
G25  24691842.201 7    -52236.923 7      1071.586 7        45.719               
> 2020 02 06 15 06 58.3000000  0  6                                             
G10  24046952.398 7    135993.628 7     -2819.944 7        47.360               
G11  22016875.554 8    108051.620 8     -2251.701 8        50.037               
G14  21022716.736 9     67535.747 9     -1405.750 9        55.650               
G18  20681827.402 9     70884.608 9     -1483.694 9        55.283               
G22  21778853.771 8    -96737.046 8      1998.356 8        51.805               
G25  24691820.706 7    -52345.464 7      1071.088 7        45.758               
> 2020 02 06 15 06 58.4000000  0  6                                             
G10  24047006.004 7    136275.425 7     -2822.618 7        47.393               
G11  22016917.312 8    108276.456 8     -2252.378 8        49.914               
G14  21022743.127 9     67676.011 9     -1404.655 9        55.763               
G18  20681854.382 9     71032.730 9     -1483.908 9        55.515               
G22  21778815.082 8    -96937.081 8      1996.738 8        51.902               
G25  24691799.905 7    -52452.842 7      1075.555 7        45.807               
> 2020 02 06 15 06 58.5000000  0  6                                             
G10  24047058.284 7    136556.247 7     -2821.592 7        47.310               
G11  22016958.978 8    108500.325 8     -2251.437 8        49.872               
G14  21022768.550 9     67815.304 9     -1405.512 9        55.767               
G18  20681880.502 9     71179.883 9     -1483.004 9        55.700               
G22  21778776.087 8    -97138.089 8      1997.439 8        52.040               
G25  24691777.260 7    -52561.181 7      1069.382 7        45.873               
> 2020 02 06 15 06 58.6000000  0  6                                             
G10  24047110.930 7    136837.299 7     -2818.500 7        47.107               
G11  22017001.099 8    108724.427 8     -2250.420 8        49.980               
