$GPRMC,150631.00,A,3932.0402024,N,12219.9456965,W,0.86,0.00,060220,0.0,E,A*29
$GPGGA,150631.00,3932.0402024,N,12219.9456965,W,1,05,1.0,80.457,M,0.000,M,0.0,*5C
$GPGSA,A,3,10,11,14,18,22,,,,,,,,3.6,1.9,3.0,1*2C
$GPGSV,2,1,05,10,16,107,46,11,38,235,50,14,63,038,54,18,60,230,54,1*6F
$GPGSV,2,2,05,22,50,310,52,,,,,,,,,,,,,1*51
$GPRMC,150632.00,A,3932.0402654,N,12219.9455622,W,1.13,0.00,060220,0.0,E,A*29
$GPGGA,150632.00,3932.0402654,N,12219.9455622,W,1,05,1.0,83.853,M,0.000,M,0.0,*5A
$GPGSA,A,3,10,11,14,18,22,,,,,,,,3.6,1.9,3.0,1*2C
$GPGSV,2,1,05,10,16,107,47,11,38,235,50,14,63,038,55,18,60,230,54,1*6F
$GPGSV,2,2,05,22,50,310,52,,,,,,,,,,,,,1*51
$GPRMC,150633.00,A,3932.0400586,N,12219.9458206,W,2.52,290.23,060220,0.0,E,A*25
$GPGGA,150633.00,3932.0400586,N,12219.9458206,W,1,05,1.0,81.369,M,0.000,M,0.0,*5A
$GPGSA,A,3,10,11,14,18,22,,,,,,,,3.6,1.9,3.0,1*2C
$GPGSV,2,1,05,10,16,107,46,11,38,235,50,14,63,038,54,18,60,230,56,1*6D
$GPGSV,2,2,05,22,50,310,54,,,,,,,,,,,,,1*57
$GPRMC,150634.00,A,3932.0401046,N,12219.9460155,W,0.34,290.23,060220,0.0,E,A*26
$GPGGA,150634.00,3932.0401046,N,12219.9460155,W,1,05,1.0,82.564,M,0.000,M,0.0,*53
$GPGSA,A,3,10,11,14,18,22,,,,,,,,3.6,1.9,3.0,1*2C
$GPGSV,2,1,05,10,16,107,48,11,38,235,52,14,63,038,54,18,60,230,56,1*61
$GPGSV,2,2,05,22,50,310,53,,,,,,,,,,,,,1*50
$GPRMC,150635.00,A,3932.0401446,N,12219.9459246,W,1.40,290.23,060220,0.0,E,A*2A
$GPGGA,150635.00,3932.0401446,N,12219.9459246,W,1,05,1.0,83.198,M,0.000,M,0.0,*5B
$GPGSA,A,3,10,11,14,18,22,,,,,,,,3.6,1.9,3.0,1*2C
$GPGSV,2,1,05,10,16,107,48,11,38,235,53,14,63,038,54,18,60,230,56,1*60
$GPGSV,2,2,05,22,50,310,54,,,,,,,,,,,,,1*57
$GPRMC,150636.00,A,3932.0395277,N,12219.9453256,W,0.56,290.23,060220,0.0,E,A*2A
$GPGGA,150636.00,3932.0395277,N,12219.9453256,W,1,05,1.0,85.238,M,0.000,M,0.0,*52
$GPGSA,A,3,10,11,14,18,22,,,,,,,,3.6,1.9,3.0,1*2C
$GPGSV,2,1,05,10,16,107,48,11,38,235,53,14,63,038,55,18,60,230,55,1*62
$GPGSV,2,2,05,22,50,310,53,,,,,,,,,,,,,1*50
$GPRMC,150637.00,A,3932.0394610,N,12219.9460181,W,1.28,290.23,060220,0.0,E,A*2E
$GPGGA,150637.00,3932.0394610,N,12219.9460181,W,1,05,1.0,83.893,M,0.000,M,0.0,*53
$GPGSA,A,3,10,11,14,18,22,,,,,,,,3.6,1.9,3.0,1*2C
$GPGSV,2,1,05,10,16,107,48,11,38,235,52,14,63,038,56,18,60,230,56,1*63
$GPGSV,2,2,05,22,50,310,52,,,,,,,,,,,,,1*51
$GPRMC,150638.00,A,3932.0391860,N,12219.9452915,W,0.62,290.23,060220,0.0,E,A*26
$GPGGA,150638.00,3932.0391860,N,12219.9452915,W,1,05,1.0,86.000,M,0.000,M,0.0,*53
$GPGSA,A,3,10,11,14,18,22,,,,,,,,3.6,1.9,3.0,1*2C
$GPGSV,2,1,05,10,16,107,48,11,38,235,50,14,63,038,55,18,60,230,55,1*61
$GPGSV,2,2,05,22,50,310,52,,,,,,,,,,,,,1*51
$GPRMC,150639.00,A,3932.0376029,N,12219.9450540,W,0.12,290.23,060220,0.0,E,A*22
$GPGGA,150639.00,3932.0376029,N,12219.9450540,W,1,05,1.0,91.590,M,0.000,M,0.0,*5A
$GPGSA,A,3,10,11,14,18,22,,,,,,,,3.6,1.9,3.0,1*2C
$GPGSV,2,1,05,10,16,107,47,11,38,235,50,14,63,038,56,18,60,230,55,1*6D
$GPGSV,2,2,05,22,50,310,52,,,,,,,,,,,,,1*51
$GPRMC,150640.00,A,3932.0422823,N,12219.9464754,W,2.24,320.65,060220,0.0,E,A*27
$GPGGA,150640.00,3932.0422823,N,12219.9464754,W,1,05,1.0,74.885,M,0.000,M,0.0,*52
$GPGSA,A,3,10,11,14,18,22,,,,,,,,3.6,1.9,3.0,1*2C
$GPGSV,2,1,05,10,16,107,47,11,38,235,50,14,63,038,56,18,60,230,55,1*6D
$GPGSV,2,2,05,22,50,310,52,,,,,,,,,,,,,1*51
$GPRMC,150641.00,A,3932.0392474,N,12219.9455379,W,0.71,320.65,060220,0.0,E,A*2F
$GPGGA,150641.00,3932.0392474,N,12219.9455379,W,1,05,1.0,86.130,M,0.000,M,0.0,*52
$GPGSA,A,3,10,11,14,18,22,,,,,,,,3.6,1.9,3.0,1*2C
$GPGSV,2,1,05,10,16,107,47,11,38,235,51,14,63,038,56,18,60,230,56,1*6F
$GPGSV,2,2,05,22,50,310,53,,,,,,,,,,,,,1*50
$GPRMC,150642.00,A,3932.0411949,N,12219.9460936,W,2.25,292.42,060220,0.0,E,A*2A
$GPGGA,150642.00,3932.0411949,N,12219.9460936,W,1,05,1.0,78.304,M,0.000,M,0.0,*5D
$GPGSA,A,3,10,11,14,18,22,,,,,,,,3.6,1.9,3.0,1*2C
$GPGSV,2,1,05,10,16,107,47,11,38,235,52,14,63,038,56,18,60,230,56,1*6C
$GPGSV,2,2,05,22,50,310,52,,,,,,,,,,,,,1*51
$GPRMC,150643.00,A,3932.0410568,N,12219.9463809,W,1.94,292.42,060220,0.0,E,A*22
$GPGGA,150643.00,3932.0410568,N,12219.9463809,W,1,05,1.0,79.982,M,0.000,M,0.0,*59
$GPGSA,A,3,10,11,14,18,22,,,,,,,,3.6,1.9,3.0,1*2C
$GPGSV,2,1,05,10,16,107,48,11,38,235,50,14,63,038,54,18,60,230,56,1*63
$GPGSV,2,2,05,22,50,310,52,,,,,,,,,,,,,1*51
$GPRMC,150644.00,A,3932.0390847,N,12219.9456517,W,1.41,292.42,060220,0.0,E,A*26
$GPGGA,150644.00,3932.0390847,N,12219.9456517,W,1,05,1.0,85.617,M,0.000,M,0.0,*55
$GPGSA,A,3,10,11,14,18,22,,,,,,,,3.6,1.9,3.0,1*2C
$GPGSV,2,1,05,10,16,107,47,11,38,235,50,14,63,038,54,18,60,230,54,1*6E
$GPGSV,2,2,05,22,50,310,51,,,,,,,,,,,,,1*52
$GPRMC,150645.00,A,3932.0404183,N,12219.9457030,W,1.65,292.42,060220,0.0,E,A*2B
$GPGGA,150645.00,3932.0404183,N,12219.9457030,W,1,05,1.0,81.492,M,0.000,M,0.0,*55
$GPGSA,A,3,10,11,14,18,22,,,,,,,,3.6,1.9,3.0,1*2C
$GPGSV,2,1,05,10,16,107,48,11,38,235,49,14,63,038,54,18,60,230,55,1*68
$GPGSV,2,2,05,22,50,310,51,,,,,,,,,,,,,1*52
$GPRMC,150646.00,A,3932.0391887,N,12219.9453727,W,1.52,292.42,060220,0.0,E,A*2F
$GPGGA,150646.00,3932.0391887,N,12219.9453727,W,1,05,1.0,86.363,M,0.000,M,0.0,*5B
$GPGSA,A,3,10,11,14,18,22,,,,,,,,3.6,1.9,3.1,1*2D
$GPGSV,2,1,05,10,16,107,47,11,38,235,49,14,63,038,54,18,60,230,56,1*64
$GPGSV,2,2,05,22,50,310,52,,,,,,,,,,,,,1*51
$GPRMC,150647.00,A,3932.0401319,N,12219.9456385,W,0.56,292.42,060220,0.0,E,A*20
$GPGGA,150647.00,3932.0401319,N,12219.9456385,W,1,05,1.0,82.473,M,0.000,M,0.0,*53
$GPGSA,A,3,10,11,14,18,22,,,,,,,,3.6,1.9,3.1,1*2D
$GPGSV,2,1,05,10,16,107,48,11,38,235,50,14,63,038,55,18,60,230,55,1*61
$GPGSV,2,2,05,22,50,310,51,,,,,,,,,,,,,1*52
$GPRMC,150648.00,A,3932.0397872,N,12219.9456342,W,1.06,292.42,060220,0.0,E,A*2E
$GPGGA,150648.00,3932.0397872,N,12219.9456342,W,1,05,1.0,84.112,M,0.000,M,0.0,*5D
$GPGSA,A,3,10,11,14,18,22,,,,,,,,3.6,1.9,3.1,1*2D
$GPGSV,2,1,05,10,16,107,48,11,38,235,50,14,63,038,56,18,60,230,55,1*62
$GPGSV,2,2,05,22,50,310,52,,,,,,,,,,,,,1*51
$GPRMC,150649.00,A,3932.0396956,N,12219.9454481,W,1.04,292.42,060220,0.0,E,A*21
$GPGGA,150649.00,3932.0396956,N,12219.9454481,W,1,05,1.0,83.298,M,0.000,M,0.0,*56
$GPGSA,A,3,10,11,14,18,22,,,,,,,,3.6,1.9,3.1,1*2D
$GPGSV,2,1,05,10,16,107,47,11,38,235,50,14,63,038,55,18,60,230,55,1*6E
$GPGSV,2,2,05,22,50,310,53,,,,,,,,,,,,,1*50
$GPRMC,150650.00,A,3932.0391808,N,12219.9449344,W,0.63,292.42,060220,0.0,E,A*26
$GPGGA,150650.00,3932.0391808,N,12219.9449344,W,1,05,1.0,85.912,M,0.000,M,0.0,*5E
$GPGSA,A,3,10,11,14,18,22,,,,,,,,3.6,1.9,3.1,1*2D
$GPGSV,2,1,05,10,16,107,48,11,38,235,51,14,63,038,56,18,60,230,54,1*62
$GPGSV,2,2,05,22,50,310,54,,,,,,,,,,,,,1*57
$GPRMC,150651.00,A,3932.0409076,N,12219.9461034,W,1.39,292.42,060220,0.0,E,A*20
$GPGGA,150651.00,3932.0409076,N,12219.9461034,W,1,05,1.0,81.683,M,0.000,M,0.0,*55
$GPGSA,A,3,10,11,14,18,22,,,,,,,,3.6,1.9,3.1,1*2D
$GPGSV,2,1,05,10,16,107,48,11,38,235,51,14,63,038,56,18,60,230,56,1*60
$GPGSV,2,2,05,22,50,310,53,,,,,,,,,,,,,1*50
$GPRMC,150652.00,A,3932.0397264,N,12219.9460164,W,0.85,292.42,060220,0.0,E,A*21
$GPGGA,150652.00,3932.0397264,N,12219.9460164,W,1,05,1.0,81.981,M,0.000,M,0.0,*5F
$GPGSA,A,3,10,11,14,18,22,,,,,,,,3.6,1.9,3.1,1*2D
$GPGSV,2,1,05,10,16,107,48,11,38,235,51,14,63,038,55,18,60,230,55,1*60
$GPGSV,2,2,05,22,50,310,53,,,,,,,,,,,,,1*50
$GPRMC,150653.00,A,3932.0400939,N,12219.9455904,W,3.54,250.55,060220,0.0,E,A*25
$GPGGA,150653.00,3932.0400939,N,12219.9455904,W,1,05,1.0,83.211,M,0.000,M,0.0,*5C
$GPGSA,A,3,10,11,14,18,22,,,,,,,,3.6,1.9,3.1,1*2D
$GPGSV,2,1,05,10,16,107,47,11,38,235,50,14,63,038,55,18,60,230,56,1*6D
$GPGSV,2,2,05,22,50,310,54,,,,,,,,,,,,,1*57
$GPRMC,150654.00,A,3932.0402409,N,12219.9456161,W,0.51,250.55,060220,0.0,E,A*20
$GPGGA,150654.00,3932.0402409,N,12219.9456161,W,1,05,1.0,83.614,M,0.000,M,0.0,*5E
$GPGSA,A,3,10,11,14,18,22,,,,,,,,3.6,1.9,3.1,1*2D
$GPGSV,2,1,05,10,16,107,46,11,38,235,50,14,63,038,54,18,60,230,56,1*6D
$GPGSV,2,2,05,22,50,310,53,,,,,,,,,,,,,1*50
$GPRMC,150655.00,A,3932.0402662,N,12219.9460846,W,0.83,250.55,060220,0.0,E,A*28
$GPGGA,150655.00,3932.0402662,N,12219.9460846,W,1,05,1.0,82.460,M,0.000,M,0.0,*59
$GPGSA,A,3,10,11,14,18,22,,,,,,,,3.6,1.9,3.1,1*2D
$GPGSV,2,1,05,10,16,107,47,11,38,235,49,14,63,038,55,18,60,230,56,1*65
$GPGSV,2,2,05,22,50,310,52,,,,,,,,,,,,,1*51
$GPRMC,150656.00,A,3932.0393523,N,12219.9455195,W,0.99,250.55,060220,0.0,E,A*28
$GPGGA,150656.00,3932.0393523,N,12219.9455195,W,1,05,1.0,82.784,M,0.000,M,0.0,*5B
$GPGSA,A,3,10,11,14,18,22,,,,,,,,3.6,1.9,3.1,1*2D
$GPGSV,2,1,05,10,16,107,47,11,38,235,49,14,63,038,54,18,60,230,54,1*66
$GPGSV,2,2,05,22,50,310,52,,,,,,,,,,,,,1*51
$GPRMC,150657.00,A,3932.0400522,N,12219.9451396,W,0.56,250.55,060220,0.0,E,A*23
$GPGGA,150657.00,3932.0400522,N,12219.9451396,W,1,05,1.0,84.552,M,0.000,M,0.0,*5C
$GPGSA,A,3,10,11,14,18,22,,,,,,,,3.6,1.9,3.1,1*2D
$GPGSV,2,1,05,10,16,107,48,11,38,235,50,14,63,038,54,18,60,230,54,1*61
$GPGSV,2,2,05,22,50,310,52,,,,,,,,,,,,,1*51
$GPRMC,150658.00,A,3932.0406889,N,12219.9462024,W,1.06,250.55,060220,0.0,E,A*28
$GPGGA,150658.00,3932.0406889,N,12219.9462024,W,1,05,1.0,80.003,M,0.000,M,0.0,*56
$GPGSA,A,3,10,11,14,18,22,,,,,,,,3.6,1.9,3.1,1*2D
$GPGSV,2,1,05,10,16,107,49,11,38,235,51,14,63,038,56,18,60,230,54,1*63
$GPGSV,2,2,05,22,50,310,52,,,,,,,,,,,,,1*51
$GPRMC,150659.00,A,3932.0394535,N,12219.9462288,W,0.74,250.55,060220,0.0,E,A*2F
$GPGGA,150659.00,3932.0394535,N,12219.9462288,W,1,05,1.0,84.432,M,0.000,M,0.0,*57
$GPGSA,A,3,10,11,14,18,22,,,,,,,,3.6,1.9,3.1,1*2D
$GPGSV,2,1,05,10,16,107,48,11,38,235,51,14,63,038,54,18,60,230,54,1*60
$GPGSV,2,2,05,22,50,310,52,,,,,,,,,,,,,1*51
$GPRMC,150700.00,A,3932.0397714,N,12219.9460980,W,0.97,250.55,060220,0.0,E,A*2C
$GPGGA,150700.00,3932.0397714,N,12219.9460980,W,1,09,1.0,82.103,M,0.000,M,0.0,*54
$GPGSA,A,3,01,03,10,11,14,18,22,31,32,,,,2.0,1.1,1.7,1*27
$GPGSV,3,1,09,01,57,282,54,03,27,303,49,10,16,107,48,11,38,235,50,1*68
$GPGSV,3,2,09,14,63,038,54,18,60,230,53,22,50,310,52,31,59,131,54,1*62
$GPGSV,3,3,09,32,37,053,50,,,,,,,,,,,,,1*5B
$GPRMC,150701.00,A,3932.0395504,N,12219.9460930,W,0.95,250.55,060220,0.0,E,A*25
$GPGGA,150701.00,3932.0395504,N,12219.9460930,W,1,09,1.0,83.146,M,0.000,M,0.0,*5F
$GPGSA,A,3,01,03,10,11,14,18,22,31,32,,,,2.0,1.1,1.7,1*27
$GPGSV,3,1,09,01,57,282,53,03,27,303,49,10,16,107,47,11,38,235,50,1*60
$GPGSV,3,2,09,14,63,038,55,18,60,230,53,22,50,310,52,31,59,131,54,1*63
$GPGSV,3,3,09,32,37,053,51,,,,,,,,,,,,,1*5A
$GPRMC,150702.00,A,3932.0395787,N,12219.9461781,W,0.54,250.55,060220,0.0,E,A*27
$GPGGA,150702.00,3932.0395787,N,12219.9461781,W,1,09,1.0,83.600,M,0.000,M,0.0,*55
$GPGSA,A,3,01,03,10,11,14,18,22,31,32,,,,2.0,1.1,1.7,1*27
$GPGSV,3,1,09,01,57,282,54,03,27,303,48,10,16,107,46,11,38,235,51,1*66
$GPGSV,3,2,09,14,63,038,54,18,60,230,55,22,50,310,53,31,59,131,54,1*65
$GPGSV,3,3,09,32,37,053,50,,,,,,,,,,,,,1*5B
$GPRMC,150703.00,A,3932.0395799,N,12219.9463061,W,0.32,250.55,060220,0.0,E,A*22
$GPGGA,150703.00,3932.0395799,N,12219.9463061,W,1,09,1.0,84.575,M,0.000,M,0.0,*56
$GPGSA,A,3,01,03,10,11,14,18,22,31,32,,,,2.0,1.1,1.7,1*27
$GPGSV,3,1,09,01,57,282,54,03,27,303,50,10,16,107,47,11,38,235,51,1*6E
$GPGSV,3,2,09,14,63,038,54,18,60,230,56,22,50,310,54,31,59,131,54,1*61
$GPGSV,3,3,09,32,37,053,50,,,,,,,,,,,,,1*5B
$GPRMC,150704.00,A,3932.0397393,N,12219.9458789,W,0.49,250.55,060220,0.0,E,A*2C
$GPGGA,150704.00,3932.0397393,N,12219.9458789,W,1,09,1.0,82.945,M,0.000,M,0.0,*5D
$GPGSA,A,3,01,03,10,11,14,18,22,31,32,,,,2.0,1.1,1.7,1*27
$GPGSV,3,1,09,01,57,282,54,03,27,303,49,10,16,107,46,11,38,235,51,1*67
$GPGSV,3,2,09,14,63,038,54,18,60,230,56,22,50,310,53,31,59,131,54,1*66
$GPGSV,3,3,09,32,37,053,50,,,,,,,,,,,,,1*5B
$GPRMC,150705.00,A,3932.0398911,N,12219.9460127,W,0.69,250.55,060220,0.0,E,A*29
$GPGGA,150705.00,3932.0398911,N,12219.9460127,W,1,09,1.0,84.628,M,0.000,M,0.0,*58
$GPGSA,A,3,01,03,10,11,14,18,22,31,32,,,,2.0,1.1,1.7,1*27
$GPGSV,3,1,09,01,57,282,54,03,27,303,48,10,16,107,46,11,38,235,50,1*67
$GPGSV,3,2,09,14,63,038,54,18,60,230,54,22,50,310,53,31,59,131,55,1*65
$GPGSV,3,3,09,32,37,053,50,,,,,,,,,,,,,1*5B
$GPRMC,150706.00,A,3932.0397509,N,12219.9460701,W,0.46,250.55,060220,0.0,E,A*2F
$GPGGA,150706.00,3932.0397509,N,12219.9460701,W,1,09,1.0,81.725,M,0.000,M,0.0,*5A
$GPGSA,A,3,01,03,10,11,14,18,22,31,32,,,,2.0,1.1,1.7,1*27
$GPGSV,3,1,09,01,57,282,54,03,27,303,49,10,16,107,46,11,38,235,50,1*66
$GPGSV,3,2,09,14,63,038,54,18,60,230,54,22,50,310,52,31,59,131,54,1*65
$GPGSV,3,3,09,32,37,053,50,,,,,,,,,,,,,1*5B
$GPRMC,150707.00,A,3932.0397302,N,12219.9464970,W,1.43,250.55,060220,0.0,E,A*2B
$GPGGA,150707.00,3932.0397302,N,12219.9464970,W,1,09,1.0,84.409,M,0.000,M,0.0,*52
$GPGSA,A,3,01,03,10,11,14,18,22,31,32,,,,2.0,1.1,1.7,1*27
$GPGSV,3,1,09,01,57,282,54,03,27,303,48,10,16,107,45,11,38,235,50,1*64
$GPGSV,3,2,09,14,63,038,55,18,60,230,54,22,50,310,52,31,59,131,54,1*64
$GPGSV,3,3,09,32,37,053,50,,,,,,,,,,,,,1*5B
$GPRMC,150708.00,A,3932.0397973,N,12219.9458201,W,0.63,250.55,060220,0.0,E,A*29
$GPGGA,150708.00,3932.0397973,N,12219.9458201,W,1,09,1.0,83.164,M,0.000,M,0.0,*5A
$GPGSA,A,3,01,03,10,11,14,18,22,31,32,,,,2.0,1.1,1.7,1*27
$GPGSV,3,1,09,01,57,282,53,03,27,303,49,10,16,107,46,11,38,235,49,1*69
$GPGSV,3,2,09,14,63,038,54,18,60,230,54,22,50,310,52,31,59,131,54,1*65
$GPGSV,3,3,09,32,37,053,50,,,,,,,,,,,,,1*5B
$GPRMC,150709.00,A,3932.0400231,N,12219.9462375,W,1.02,250.55,060220,0.0,E,A*21
$GPGGA,150709.00,3932.0400231,N,12219.9462375,W,1,09,1.0,83.181,M,0.000,M,0.0,*5F
$GPGSA,A,3,01,03,10,11,14,18,22,31,32,,,,2.0,1.1,1.7,1*27
$GPGSV,3,1,09,01,57,282,53,03,27,303,50,10,16,107,46,11,38,235,50,1*69
$GPGSV,3,2,09,14,63,038,53,18,60,230,55,22,50,310,52,31,59,131,52,1*65
$GPGSV,3,3,09,32,37,053,50,,,,,,,,,,,,,1*5B
$GPRMC,150710.00,A,3932.0398740,N,12219.9462523,W,1.26,250.55,060220,0.0,E,A*2F
$GPGGA,150710.00,3932.0398740,N,12219.9462523,W,1,09,1.0,83.674,M,0.000,M,0.0,*5A
$GPGSA,A,3,01,03,10,11,14,18,22,31,32,,,,2.0,1.1,1.7,1*27
$GPGSV,3,1,09,01,57,282,53,03,27,303,48,10,16,107,47,11,38,235,52,1*63
$GPGSV,3,2,09,14,63,038,54,18,60,230,54,22,50,310,53,31,59,131,52,1*62
$GPGSV,3,3,09,32,37,053,51,,,,,,,,,,,,,1*5A
$GPRMC,150711.00,A,3932.0397364,N,12219.9463466,W,1.60,250.55,060220,0.0,E,A*20
$GPGGA,150711.00,3932.0397364,N,12219.9463466,W,1,09,1.0,82.960,M,0.000,M,0.0,*5C
$GPGSA,A,3,01,03,10,11,14,18,22,31,32,,,,2.0,1.1,1.7,1*27
$GPGSV,3,1,09,01,57,282,54,03,27,303,48,10,16,107,48,11,38,235,51,1*68
$GPGSV,3,2,09,14,63,038,54,18,60,230,54,22,50,310,53,31,59,131,53,1*63
$GPGSV,3,3,09,32,37,053,51,,,,,,,,,,,,,1*5A
$GPRMC,150712.00,A,3932.0400588,N,12219.9458971,W,0.62,250.55,060220,0.0,E,A*2E
$GPGGA,150712.00,3932.0400588,N,12219.9458971,W,1,09,1.0,83.327,M,0.000,M,0.0,*59
$GPGSA,A,3,01,03,10,11,14,18,22,31,32,,,,2.0,1.1,1.7,1*27
$GPGSV,3,1,09,01,57,282,54,03,27,303,48,10,16,107,47,11,38,235,50,1*66
$GPGSV,3,2,09,14,63,038,54,18,60,230,54,22,50,310,53,31,59,131,56,1*66
$GPGSV,3,3,09,32,37,053,52,,,,,,,,,,,,,1*59
$GPRMC,150713.00,A,3932.0396079,N,12219.9462053,W,0.23,250.55,060220,0.0,E,A*29
$GPGGA,150713.00,3932.0396079,N,12219.9462053,W,1,09,1.0,82.604,M,0.000,M,0.0,*5E
$GPGSA,A,3,01,03,10,11,14,18,22,31,32,,,,2.0,1.1,1.7,1*27
$GPGSV,3,1,09,01,57,282,55,03,27,303,48,10,16,107,46,11,38,235,50,1*66
$GPGSV,3,2,09,14,63,038,54,18,60,230,54,22,50,310,54,31,59,131,54,1*63
$GPGSV,3,3,09,32,37,053,52,,,,,,,,,,,,,1*59
$GPRMC,150714.00,A,3932.0397923,N,12219.9461795,W,1.25,250.55,060220,0.0,E,A*20
$GPGGA,150714.00,3932.0397923,N,12219.9461795,W,1,09,1.0,83.214,M,0.000,M,0.0,*54
$GPGSA,A,3,01,03,10,11,14,18,22,31,32,,,,2.0,1.1,1.7,1*27
$GPGSV,3,1,09,01,57,282,54,03,27,303,50,10,16,107,47,11,38,235,50,1*6F
$GPGSV,3,2,09,14,63,038,53,18,60,230,53,22,50,310,52,31,59,131,54,1*65
$GPGSV,3,3,09,32,37,053,53,,,,,,,,,,,,,1*58
$GPRMC,150715.00,A,3932.0394475,N,12219.9456360,W,0.72,250.55,060220,0.0,E,A*25
$GPGGA,150715.00,3932.0394475,N,12219.9456360,W,1,09,1.0,82.323,M,0.000,M,0.0,*56
$GPGSA,A,3,01,03,10,11,14,18,22,31,32,,,,2.0,1.1,1.7,1*27
$GPGSV,3,1,09,01,57,282,54,03,27,303,50,10,16,107,46,11,38,235,52,1*6C
$GPGSV,3,2,09,14,63,038,53,18,60,230,53,22,50,310,52,31,59,131,54,1*65
$GPGSV,3,3,09,32,37,053,52,,,,,,,,,,,,,1*59
$GPRMC,150716.00,A,3932.0397641,N,12219.9461215,W,0.55,250.55,060220,0.0,E,A*22
$GPGGA,150716.00,3932.0397641,N,12219.9461215,W,1,09,1.0,83.382,M,0.000,M,0.0,*5E
$GPGSA,A,3,01,03,10,11,14,18,22,31,32,,,,2.0,1.1,1.7,1*27
$GPGSV,3,1,09,01,57,282,54,03,27,303,50,10,16,107,48,11,37,234,52,1*6C
$GPGSV,3,2,09,14,63,038,54,18,60,230,53,22,50,310,52,31,59,131,54,1*62
$GPGSV,3,3,09,32,37,053,52,,,,,,,,,,,,,1*59
$GPRMC,150717.00,A,3932.0399619,N,12219.9464327,W,0.75,250.55,060220,0.0,E,A*27
$GPGGA,150717.00,3932.0399619,N,12219.9464327,W,1,09,1.0,81.622,M,0.000,M,0.0,*54
$GPGSA,A,3,01,03,10,11,14,18,22,31,32,,,,2.0,1.1,1.7,1*27
$GPGSV,3,1,09,01,57,282,54,03,27,303,49,10,16,107,48,11,37,234,51,1*67
$GPGSV,3,2,09,14,63,038,53,18,60,230,53,22,50,310,53,31,59,130,52,1*63
$GPGSV,3,3,09,32,37,053,53,,,,,,,,,,,,,1*58
$GPRMC,150718.00,A,3932.0395530,N,12219.9460607,W,1.38,250.55,060220,0.0,E,A*27
$GPGGA,150718.00,3932.0395530,N,12219.9460607,W,1,09,1.0,83.803,M,0.000,M,0.0,*53
$GPGSA,A,3,01,03,10,11,14,18,22,31,32,,,,2.0,1.1,1.7,1*27
$GPGSV,3,1,09,01,58,282,54,03,27,303,48,10,16,107,47,11,37,234,50,1*67
$GPGSV,3,2,09,14,63,038,52,18,60,230,52,22,50,310,53,31,59,130,52,1*63
$GPGSV,3,3,09,32,37,053,54,,,,,,,,,,,,,1*5F
$GPRMC,150719.00,A,3932.0400686,N,12219.9460557,W,0.33,250.55,060220,0.0,E,A*2F
$GPGGA,150719.00,3932.0400686,N,12219.9460557,W,1,09,1.0,82.522,M,0.000,M,0.0,*5E
$GPGSA,A,3,01,03,10,11,14,18,22,31,32,,,,2.0,1.1,1.7,1*27
$GPGSV,3,1,09,01,58,282,53,03,27,303,49,10,16,107,46,11,37,234,50,1*60
$GPGSV,3,2,09,14,63,038,52,18,60,230,52,22,50,310,52,31,59,130,53,1*63
$GPGSV,3,3,09,32,37,053,53,,,,,,,,,,,,,1*58
$GPRMC,150720.00,A,3932.0396155,N,12219.9464881,W,1.01,250.55,060220,0.0,E,A*26
$GPGGA,150720.00,3932.0396155,N,12219.9464881,W,1,09,1.0,84.247,M,0.000,M,0.0,*55
$GPGSA,A,3,01,03,10,11,14,18,22,31,32,,,,2.0,1.1,1.7,1*27
$GPGSV,3,1,09,01,58,282,54,03,27,303,49,10,16,107,46,11,37,234,51,1*66
$GPGSV,3,2,09,14,63,038,52,18,60,229,51,22,50,310,53,31,59,130,55,1*6F
$GPGSV,3,3,09,32,37,053,52,,,,,,,,,,,,,1*59
$GPRMC,150721.00,A,3932.0400042,N,12219.9458286,W,1.20,250.55,060220,0.0,E,A*29
$GPGGA,150721.00,3932.0400042,N,12219.9458286,W,1,09,1.0,84.590,M,0.000,M,0.0,*54
$GPGSA,A,3,01,03,10,11,14,18,22,31,32,,,,2.0,1.1,1.7,1*27
$GPGSV,3,1,09,01,58,282,53,03,27,303,48,10,16,107,46,11,37,234,51,1*60
$GPGSV,3,2,09,14,63,038,51,18,60,229,52,22,50,310,53,31,59,130,54,1*6E
$GPGSV,3,3,09,32,37,053,51,,,,,,,,,,,,,1*5A
$GPRMC,150722.00,A,3932.0400178,N,12219.9461755,W,0.13,250.55,060220,0.0,E,A*22
$GPGGA,150722.00,3932.0400178,N,12219.9461755,W,1,09,1.0,83.322,M,0.000,M,0.0,*56
$GPGSA,A,3,01,03,10,11,14,18,22,31,32,,,,2.0,1.1,1.7,1*27
$GPGSV,3,1,09,01,58,282,53,03,27,303,48,10,16,107,47,11,37,234,50,1*60
$GPGSV,3,2,09,14,63,038,51,18,60,229,51,22,50,310,52,31,59,130,54,1*6C
$GPGSV,3,3,09,32,37,053,51,,,,,,,,,,,,,1*5A
$GPRMC,150723.00,A,3932.0396338,N,12219.9456583,W,0.45,250.55,060220,0.0,E,A*23
$GPGGA,150723.00,3932.0396338,N,12219.9456583,W,1,09,1.0,85.289,M,0.000,M,0.0,*52
$GPGSA,A,3,01,03,10,11,14,18,22,31,32,,,,2.0,1.1,1.7,1*27
$GPGSV,3,1,09,01,58,282,54,03,27,303,48,10,16,107,46,11,37,234,50,1*66
$GPGSV,3,2,09,14,63,038,52,18,60,229,52,22,50,310,52,31,59,130,54,1*6C
$GPGSV,3,3,09,32,37,053,51,,,,,,,,,,,,,1*5A
$GPRMC,150724.00,A,3932.0401349,N,12219.9458346,W,0.62,250.55,060220,0.0,E,A*2F
$GPGGA,150724.00,3932.0401349,N,12219.9458346,W,1,09,1.0,83.719,M,0.000,M,0.0,*51
$GPGSA,A,3,01,03,10,11,14,18,22,31,32,,,,2.0,1.1,1.7,1*27
$GPGSV,3,1,09,01,58,282,53,03,27,303,48,10,16,107,47,11,37,234,49,1*68
$GPGSV,3,2,09,14,63,038,52,18,60,229,52,22,50,310,53,31,59,130,53,1*6A
$GPGSV,3,3,09,32,37,053,51,,,,,,,,,,,,,1*5A
$GPRMC,150725.00,A,3932.0399930,N,12219.9462803,W,1.62,250.55,060220,0.0,E,A*2E
$GPGGA,150725.00,3932.0399930,N,12219.9462803,W,1,09,1.0,83.764,M,0.000,M,0.0,*5B
$GPGSA,A,3,01,03,10,11,14,18,22,31,32,,,,2.0,1.1,1.7,1*27
$GPGSV,3,1,09,01,58,282,53,03,27,303,48,10,16,107,48,11,37,234,50,1*6F
$GPGSV,3,2,09,14,63,038,52,18,60,229,53,22,50,310,53,31,59,130,53,1*6B
$GPGSV,3,3,09,32,37,053,52,,,,,,,,,,,,,1*59
$GPRMC,150726.00,A,3932.0397324,N,12219.9460399,W,1.54,250.55,060220,0.0,E,A*23
$GPGGA,150726.00,3932.0397324,N,12219.9460399,W,1,09,1.0,83.083,M,0.000,M,0.0,*5D
$GPGSA,A,3,01,03,10,11,14,18,22,31,32,,,,2.0,1.1,1.7,1*27
$GPGSV,3,1,09,01,58,282,54,03,27,303,49,10,16,107,47,11,37,234,49,1*6E
$GPGSV,3,2,09,14,63,038,52,18,60,229,52,22,50,310,52,31,59,130,52,1*6A
$GPGSV,3,3,09,32,37,053,52,,,,,,,,,,,,,1*59
$GPRMC,150727.00,A,3932.0399418,N,12219.9458560,W,1.63,250.55,060220,0.0,E,A*2B
$GPGGA,150727.00,3932.0399418,N,12219.9458560,W,1,09,1.0,83.144,M,0.000,M,0.0,*5B
$GPGSA,A,3,01,03,10,11,14,18,22,31,32,,,,2.0,1.1,1.7,1*27
$GPGSV,3,1,09,01,58,282,53,03,27,303,50,10,16,107,48,11,37,234,50,1*66
$GPGSV,3,2,09,14,63,038,52,18,60,229,53,22,50,310,52,31,59,130,53,1*6A
$GPGSV,3,3,09,32,37,053,50,,,,,,,,,,,,,1*5B
$GPRMC,150728.00,A,3932.0397492,N,12219.9460669,W,0.35,250.55,060220,0.0,E,A*2B
$GPGGA,150728.00,3932.0397492,N,12219.9460669,W,1,09,1.0,84.608,M,0.000,M,0.0,*51
$GPGSA,A,3,01,03,10,11,14,18,22,31,32,,,,2.0,1.1,1.7,1*27
$GPGSV,3,1,09,01,58,282,53,03,27,303,50,10,16,107,48,11,37,234,49,1*6E
$GPGSV,3,2,09,14,63,038,52,18,60,229,53,22,50,310,51,31,59,130,54,1*6E
$GPGSV,3,3,09,32,37,053,50,,,,,,,,,,,,,1*5B
$GPRMC,150729.00,A,3932.0399670,N,12219.9465210,W,0.21,250.55,060220,0.0,E,A*20
$GPGGA,150729.00,3932.0399670,N,12219.9465210,W,1,09,1.0,82.599,M,0.000,M,0.0,*52
$GPGSA,A,3,01,03,10,11,14,18,22,31,32,,,,2.0,1.1,1.7,1*27
$GPGSV,3,1,09,01,58,282,54,03,27,303,49,10,16,107,47,11,37,234,50,1*66
$GPGSV,3,2,09,14,63,038,52,18,60,229,54,22,50,310,52,31,59,130,54,1*6A
$GPGSV,3,3,09,32,37,053,49,,,,,,,,,,,,,1*53
$GPRMC,150730.00,A,3932.0392982,N,12219.9459814,W,0.39,250.55,060220,0.0,E,A*29
$GPGGA,150730.00,3932.0392982,N,12219.9459814,W,1,09,1.0,81.030,M,0.000,M,0.0,*57
$GPGSA,A,3,01,03,10,11,14,18,22,31,32,,,,2.0,1.1,1.7,1*27
$GPGSV,3,1,09,01,58,282,53,03,27,303,50,10,16,107,48,11,37,234,50,1*66
$GPGSV,3,2,09,14,63,038,53,18,60,229,53,22,50,310,52,31,59,130,54,1*6C
$GPGSV,3,3,09,32,37,053,50,,,,,,,,,,,,,1*5B
$GPRMC,150731.00,A,3932.0397807,N,12219.9461261,W,1.49,250.55,060220,0.0,E,A*24
$GPGGA,150731.00,3932.0397807,N,12219.9461261,W,1,09,1.0,82.264,M,0.000,M,0.0,*5C
$GPGSA,A,3,01,03,10,11,14,18,22,31,32,,,,2.0,1.1,1.7,1*27
$GPGSV,3,1,09,01,58,282,53,03,27,303,49,10,16,108,47,11,37,234,50,1*6E
$GPGSV,3,2,09,14,63,038,54,18,60,229,54,22,50,310,52,31,59,130,54,1*6C
$GPGSV,3,3,09,32,37,053,51,,,,,,,,,,,,,1*5A
$GPRMC,150732.00,A,3932.0394719,N,12219.9459058,W,4.34,71.08,060220,0.0,E,A*11
$GPGGA,150732.00,3932.0394719,N,12219.9459058,W,1,09,1.0,84.287,M,0.000,M,0.0,*54
$GPGSA,A,3,01,03,10,11,14,18,22,31,32,,,,2.0,1.1,1.7,1*27
$GPGSV,3,1,09,01,58,282,54,03,27,303,48,10,16,108,46,11,37,234,50,1*69
$GPGSV,3,2,09,14,63,038,54,18,60,229,54,22,50,310,53,31,59,130,54,1*6D
$GPGSV,3,3,09,32,37,053,50,,,,,,,,,,,,,1*5B
$GPRMC,150733.00,A,3932.0401150,N,12219.9390182,W,19.92,90.23,060220,0.0,E,A*22
$GPGGA,150733.00,3932.0401150,N,12219.9390182,W,1,09,1.0,85.281,M,0.000,M,0.0,*56
$GPGSA,A,3,01,03,10,11,14,18,22,31,32,,,,2.0,1.1,1.7,1*27
$GPGSV,3,1,09,01,58,282,50,03,27,303,46,10,16,108,44,11,37,234,47,1*67
$GPGSV,3,2,09,14,63,038,52,18,60,229,52,22,50,310,50,31,59,130,52,1*68
$GPGSV,3,3,09,32,37,053,47,,,,,,,,,,,,,1*5D
$GPRMC,150734.00,A,3932.0393916,N,12219.9317699,W,19.38,90.71,060220,0.0,E,A*26
$GPGGA,150734.00,3932.0393916,N,12219.9317699,W,1,09,1.0,82.485,M,0.000,M,0.0,*50
$GPGSA,A,3,01,03,10,11,14,18,22,31,32,,,,2.0,1.1,1.7,1*27
$GPGSV,3,1,09,01,58,282,54,03,27,303,46,10,16,108,46,11,37,234,50,1*67
$GPGSV,3,2,09,14,63,038,54,18,60,229,53,22,50,310,51,31,59,130,54,1*68
$GPGSV,3,3,09,32,37,053,50,,,,,,,,,,,,,1*5B
$GPRMC,150735.00,A,3932.0390391,N,12219.9246597,W,20.36,90.35,060220,0.0,E,A*2D
$GPGGA,150735.00,3932.0390391,N,12219.9246597,W,1,09,1.0,80.916,M,0.000,M,0.0,*5A
$GPGSA,A,3,01,03,10,11,14,18,22,31,32,,,,2.0,1.1,1.7,1*27
$GPGSV,3,1,09,01,58,282,54,03,27,303,46,10,16,108,48,11,37,234,51,1*68
$GPGSV,3,2,09,14,63,038,54,18,60,229,54,22,50,310,53,31,59,130,55,1*6C
$GPGSV,3,3,09,32,37,053,50,,,,,,,,,,,,,1*5B
$GPRMC,150736.00,A,3932.0396981,N,12219.9179635,W,19.62,89.85,060220,0.0,E,A*2F
$GPGGA,150736.00,3932.0396981,N,12219.9179635,W,1,09,1.0,82.245,M,0.000,M,0.0,*5F
$GPGSA,A,3,01,03,10,11,14,18,22,31,32,,,,2.0,1.1,1.7,1*27
$GPGSV,3,1,09,01,58,282,53,03,27,303,47,10,16,108,48,11,37,234,51,1*6E
$GPGSV,3,2,09,14,63,038,53,18,60,229,54,22,50,310,53,31,59,130,53,1*6D
$GPGSV,3,3,09,32,37,053,50,,,,,,,,,,,,,1*5B
$GPRMC,150737.00,A,3932.0397121,N,12219.9114266,W,19.91,90.25,060220,0.0,E,A*2A
$GPGGA,150737.00,3932.0397121,N,12219.9114266,W,1,09,1.0,83.397,M,0.000,M,0.0,*5B
$GPGSA,A,3,01,03,10,11,14,18,22,31,32,,,,2.0,1.1,1.7,1*27
$GPGSV,3,1,09,01,58,282,52,03,27,303,48,10,16,108,48,11,37,234,52,1*63
$GPGSV,3,2,09,14,63,038,55,18,60,229,54,22,50,310,53,31,59,130,54,1*6C
$GPGSV,3,3,09,32,37,053,51,,,,,,,,,,,,,1*5A
$GPRMC,150738.00,A,3932.0397085,N,12219.9041982,W,19.54,89.85,060220,0.0,E,A*21
$GPGGA,150738.00,3932.0397085,N,12219.9041982,W,1,09,1.0,82.083,M,0.000,M,0.0,*5C
$GPGSA,A,3,01,03,10,11,14,18,22,31,32,,,,2.0,1.1,1.7,1*27
$GPGSV,3,1,09,01,58,282,53,03,27,303,48,10,16,108,48,11,37,234,52,1*62
$GPGSV,3,2,09,14,63,038,54,18,60,229,54,22,50,310,52,31,59,130,55,1*6D
$GPGSV,3,3,09,32,37,054,51,,,,,,,,,,,,,1*5D
$GPRMC,150739.00,A,3932.0393417,N,12219.8967603,W,19.65,88.65,060220,0.0,E,A*2C
$GPGGA,150739.00,3932.0393417,N,12219.8967603,W,1,09,1.0,80.811,M,0.000,M,0.0,*5D
$GPGSA,A,3,01,03,10,11,14,18,22,31,32,,,,2.0,1.1,1.7,1*27
$GPGSV,3,1,09,01,58,282,54,03,27,303,49,10,16,108,48,11,37,234,51,1*67
$GPGSV,3,2,09,14,63,038,54,18,60,229,54,22,50,310,52,31,59,130,55,1*6D
$GPGSV,3,3,09,32,37,054,50,,,,,,,,,,,,,1*5C
$GPRMC,150740.00,A,3932.0396276,N,12219.8904272,W,19.58,90.07,060220,0.0,E,A*22
$GPGGA,150740.00,3932.0396276,N,12219.8904272,W,1,09,1.0,80.552,M,0.000,M,0.0,*5A
$GPGSA,A,3,01,03,10,11,14,18,22,31,32,,,,2.0,1.1,1.7,1*27
$GPGSV,3,1,09,01,58,282,54,03,27,303,49,10,16,108,48,11,37,234,51,1*67
$GPGSV,3,2,09,14,63,038,55,18,60,229,55,22,50,310,53,31,59,130,55,1*6C
$GPGSV,3,3,09,32,37,054,51,,,,,,,,,,,,,1*5D
$GPRMC,150741.00,A,3932.0397521,N,12219.8839715,W,19.76,92.46,060220,0.0,E,A*27
$GPGGA,150741.00,3932.0397521,N,12219.8839715,W,1,09,1.0,88.790,M,0.000,M,0.0,*50
$GPGSA,A,3,01,03,10,11,14,18,22,31,32,,,,2.0,1.1,1.7,1*27
$GPGSV,3,1,09,01,58,282,54,03,27,303,49,10,16,108,47,11,37,234,52,1*6B
$GPGSV,3,2,09,14,63,038,56,18,60,229,55,22,50,310,53,31,59,130,54,1*6E
$GPGSV,3,3,09,32,37,054,50,,,,,,,,,,,,,1*5C
$GPRMC,150742.00,A,3932.0399389,N,12219.8763905,W,19.28,89.71,060220,0.0,E,A*24
$GPGGA,150742.00,3932.0399389,N,12219.8763905,W,1,09,1.0,82.715,M,0.000,M,0.0,*51
$GPGSA,A,3,01,03,10,11,14,18,22,31,32,,,,2.0,1.1,1.7,1*27
$GPGSV,3,1,09,01,58,282,55,03,27,303,48,10,16,108,48,11,37,234,52,1*64
$GPGSV,3,2,09,14,63,038,56,18,60,229,54,22,50,310,53,31,59,130,55,1*6E
$GPGSV,3,3,09,32,37,054,51,,,,,,,,,,,,,1*5D
$GPRMC,150743.00,A,3932.0399312,N,12219.8697444,W,19.70,92.11,060220,0.0,E,A*24
$GPGGA,150743.00,3932.0399312,N,12219.8697444,W,1,09,1.0,80.031,M,0.000,M,0.0,*53
$GPGSA,A,3,01,03,10,11,14,18,22,31,32,,,,2.0,1.1,1.7,1*27
$GPGSV,3,1,09,01,58,282,53,03,27,303,48,10,16,108,47,11,37,234,52,1*6D
$GPGSV,3,2,09,14,63,038,54,18,60,229,54,22,50,310,53,31,59,130,54,1*6D
$GPGSV,3,3,09,32,37,054,52,,,,,,,,,,,,,1*5E
$GPRMC,150744.00,A,3932.0397754,N,12219.8625832,W,19.45,89.71,060220,0.0,E,A*25
$GPGGA,150744.00,3932.0397754,N,12219.8625832,W,1,09,1.0,83.948,M,0.000,M,0.0,*5C
$GPGSA,A,3,01,03,10,11,14,18,22,31,32,,,,2.0,1.1,1.7,1*27
$GPGSV,3,1,09,01,58,282,54,03,27,303,48,10,16,108,47,11,37,234,51,1*69
$GPGSV,3,2,09,14,63,038,54,18,60,229,54,22,50,310,52,31,59,130,54,1*6C
$GPGSV,3,3,09,32,37,054,52,,,,,,,,,,,,,1*5E
$GPRMC,150745.00,A,3932.0398590,N,12219.8553690,W,19.44,91.40,060220,0.0,E,A*2F
$GPGGA,150745.00,3932.0398590,N,12219.8553690,W,1,09,1.0,86.800,M,0.000,M,0.0,*54
$GPGSA,A,3,01,03,10,11,14,18,22,31,32,,,,2.0,1.1,1.7,1*27
$GPGSV,3,1,09,01,58,282,55,03,27,303,48,10,16,108,47,11,37,234,50,1*69
$GPGSV,3,2,09,14,63,038,54,18,60,229,54,22,50,310,53,31,59,130,54,1*6D
$GPGSV,3,3,09,32,37,054,52,,,,,,,,,,,,,1*5E
$GPRMC,150746.00,A,3932.0392722,N,12219.8478116,W,19.77,89.56,060220,0.0,E,A*22
$GPGGA,150746.00,3932.0392722,N,12219.8478116,W,1,09,1.0,77.137,M,0.000,M,0.0,*54
$GPGSA,A,3,01,03,10,11,14,18,22,31,32,,,,2.0,1.1,1.7,1*27
$GPGSV,3,1,09,01,58,282,52,03,27,303,48,10,15,108,46,11,37,234,50,1*6C
$GPGSV,3,2,09,14,63,038,53,18,60,229,54,22,50,310,53,31,59,130,54,1*6A
$GPGSV,3,3,09,32,37,054,51,,,,,,,,,,,,,1*5D
$GPRMC,150747.00,A,3932.0395656,N,12219.8414924,W,19.12,90.03,060220,0.0,E,A*2E
$GPGGA,150747.00,3932.0395656,N,12219.8414924,W,1,09,1.0,86.447,M,0.000,M,0.0,*5F
$GPGSA,A,3,01,03,10,11,14,18,22,31,32,,,,2.0,1.1,1.7,1*27
$GPGSV,3,1,09,01,58,282,54,03,27,303,50,10,15,108,47,11,37,234,51,1*63
$GPGSV,3,2,09,14,63,038,54,18,60,229,54,22,50,310,54,31,59,130,53,1*6D
$GPGSV,3,3,09,32,37,054,52,,,,,,,,,,,,,1*5E
$GPRMC,150748.00,A,3932.0401397,N,12219.8342693,W,19.62,89.92,060220,0.0,E,A*23
$GPGGA,150748.00,3932.0401397,N,12219.8342693,W,1,09,1.0,82.920,M,0.000,M,0.0,*5D
$GPGSA,A,3,01,03,10,11,14,18,22,31,32,,,,2.0,1.1,1.7,1*27
$GPGSV,3,1,09,01,58,282,54,03,27,303,50,10,15,108,48,11,37,234,50,1*6D
$GPGSV,3,2,09,14,63,038,54,18,60,229,54,22,50,310,53,31,59,130,54,1*6D
$GPGSV,3,3,09,32,37,054,52,,,,,,,,,,,,,1*5E
$GPRMC,150749.00,A,3932.0402343,N,12219.8280356,W,18.99,90.91,060220,0.0,E,A*25
$GPGGA,150749.00,3932.0402343,N,12219.8280356,W,1,09,1.0,86.540,M,0.000,M,0.0,*5B
$GPGSA,A,3,01,03,10,11,14,18,22,31,32,,,,2.0,1.1,1.7,1*27
$GPGSV,3,1,09,01,58,282,54,03,27,303,50,10,15,108,49,11,37,234,52,1*6E
$GPGSV,3,2,09,14,63,038,55,18,60,229,55,22,50,310,53,31,59,130,54,1*6D
$GPGSV,3,3,09,32,37,054,52,,,,,,,,,,,,,1*5E
$GPRMC,150750.00,A,3932.0399026,N,12219.8209310,W,19.12,91.03,060220,0.0,E,A*23
$GPGGA,150750.00,3932.0399026,N,12219.8209310,W,1,09,1.0,87.622,M,0.000,M,0.0,*53
$GPGSA,A,3,01,03,10,11,14,18,22,31,32,,,,2.0,1.1,1.7,1*27
$GPGSV,3,1,09,01,58,282,54,03,27,303,49,10,15,108,48,11,37,234,52,1*67
$GPGSV,3,2,09,14,63,038,55,18,60,229,55,22,50,310,54,31,59,130,55,1*6B
$GPGSV,3,3,09,32,37,054,52,,,,,,,,,,,,,1*5E
$GPRMC,150751.00,A,3932.0396870,N,12219.8137458,W,19.35,91.48,060220,0.0,E,A*29
$GPGGA,150751.00,3932.0396870,N,12219.8137458,W,1,09,1.0,84.391,M,0.000,M,0.0,*5D
$GPGSA,A,3,01,03,10,11,14,18,22,31,32,,,,2.0,1.1,1.7,1*27
$GPGSV,3,1,09,01,58,282,54,03,27,303,48,10,15,108,48,11,37,234,53,1*67
$GPGSV,3,2,09,14,63,038,55,18,60,229,55,22,50,310,54,31,59,130,54,1*6A
$GPGSV,3,3,09,32,37,054,51,,,,,,,,,,,,,1*5D
$GPRMC,150752.00,A,3932.0400384,N,12219.8064124,W,19.68,91.57,060220,0.0,E,A*2D
$GPGGA,150752.00,3932.0400384,N,12219.8064124,W,1,09,1.0,84.237,M,0.000,M,0.0,*52
$GPGSA,A,3,01,03,10,11,14,18,22,31,32,,,,2.0,1.1,1.7,1*27
$GPGSV,3,1,09,01,58,282,54,03,27,303,48,10,15,108,48,11,37,234,51,1*65
$GPGSV,3,2,09,14,63,038,55,18,60,229,54,22,50,310,53,31,59,130,53,1*6B
$GPGSV,3,3,09,32,37,054,51,,,,,,,,,,,,,1*5D
$GPRMC,150753.00,A,3932.0393727,N,12219.7993471,W,19.76,90.09,060220,0.0,E,A*22
$GPGGA,150753.00,3932.0393727,N,12219.7993471,W,1,09,1.0,80.807,M,0.000,M,0.0,*55
$GPGSA,A,3,01,03,10,11,14,18,22,31,32,,,,2.0,1.1,1.7,1*27
$GPGSV,3,1,09,01,58,282,54,03,27,303,48,10,15,108,48,11,37,234,51,1*65
$GPGSV,3,2,09,14,63,038,55,18,60,229,53,22,50,310,52,31,59,130,54,1*6A
$GPGSV,3,3,09,32,37,054,51,,,,,,,,,,,,,1*5D
$GPRMC,150754.00,A,3932.0397029,N,12219.7924297,W,19.23,89.24,060220,0.0,E,A*2D
$GPGGA,150754.00,3932.0397029,N,12219.7924297,W,1,09,1.0,83.563,M,0.000,M,0.0,*51
$GPGSA,A,3,01,03,10,11,14,18,22,31,32,,,,2.0,1.1,1.7,1*27
$GPGSV,3,1,09,01,58,282,53,03,27,303,48,10,15,108,48,11,37,234,50,1*63
$GPGSV,3,2,09,14,63,038,55,18,60,229,54,22,50,310,53,31,59,130,54,1*6C
$GPGSV,3,3,09,32,37,054,52,,,,,,,,,,,,,1*5E
$GPRMC,150755.00,A,3932.0394830,N,12219.7857360,W,19.29,89.71,060220,0.0,E,A*29
$GPGGA,150755.00,3932.0394830,N,12219.7857360,W,1,09,1.0,82.424,M,0.000,M,0.0,*5C
$GPGSA,A,3,01,03,10,11,14,18,22,31,32,,,,2.0,1.1,1.7,1*27
$GPGSV,3,1,09,01,58,282,54,03,27,303,48,10,15,108,47,11,37,234,50,1*6B
$GPGSV,3,2,09,14,63,038,56,18,60,229,54,22,50,310,53,31,59,130,54,1*6F
$GPGSV,3,3,09,32,37,054,52,,,,,,,,,,,,,1*5E
$GPRMC,150756.00,A,3932.0398129,N,12219.7788010,W,19.10,89.23,060220,0.0,E,A*23
$GPGGA,150756.00,3932.0398129,N,12219.7788010,W,1,09,1.0,83.631,M,0.000,M,0.0,*5C
$GPGSA,A,3,01,03,10,11,14,18,22,31,32,,,,2.0,1.1,1.7,1*27
$GPGSV,3,1,09,01,58,282,54,03,27,303,48,10,15,108,48,11,37,234,50,1*64
$GPGSV,3,2,09,14,63,038,55,18,60,229,54,22,50,310,53,31,59,130,54,1*6C
$GPGSV,3,3,09,32,37,054,52,,,,,,,,,,,,,1*5E
$GPRMC,150757.00,A,3932.0397910,N,12219.7712359,W,19.72,90.11,060220,0.0,E,A*2F
$GPGGA,150757.00,3932.0397910,N,12219.7712359,W,1,09,1.0,84.536,M,0.000,M,0.0,*5E
$GPGSA,A,3,01,03,10,11,14,18,22,31,32,,,,2.0,1.1,1.7,1*27
$GPGSV,3,1,09,01,58,282,54,03,27,303,47,10,15,108,47,11,37,234,50,1*64
$GPGSV,3,2,09,14,63,038,55,18,60,229,55,22,50,310,53,31,59,130,54,1*6D
$GPGSV,3,3,09,32,37,054,52,,,,,,,,,,,,,1*5E
$GPRMC,150758.00,A,3932.0397335,N,12219.7643231,W,19.54,90.79,060220,0.0,E,A*2D
$GPGGA,150758.00,3932.0397335,N,12219.7643231,W,1,09,1.0,82.785,M,0.000,M,0.0,*5A
$GPGSA,A,3,01,03,10,11,14,18,22,31,32,,,,2.0,1.1,1.7,1*27
$GPGSV,3,1,09,01,58,282,53,03,27,303,48,10,15,108,47,11,37,234,50,1*6C
$GPGSV,3,2,09,14,63,038,54,18,60,229,54,22,50,310,54,31,59,130,54,1*6A
$GPGSV,3,3,09,32,37,054,52,,,,,,,,,,,,,1*5E
$GPRMC,150759.00,A,3932.0393498,N,12219.7574316,W,19.60,88.83,060220,0.0,E,A*20
$GPGGA,150759.00,3932.0393498,N,12219.7574316,W,1,09,1.0,81.807,M,0.000,M,0.0,*5A
$GPGSA,A,3,01,03,10,11,14,18,22,31,32,,,,2.0,1.1,1.7,1*27
$GPGSV,3,1,09,01,58,282,53,03,27,303,48,10,15,108,46,11,37,234,49,1*65
$GPGSV,3,2,09,14,63,038,53,18,60,229,54,22,50,310,54,31,59,130,55,1*6C
$GPGSV,3,3,09,32,37,054,50,,,,,,,,,,,,,1*5C
$GPRMC,150800.00,A,3932.0398831,N,12219.7508264,W,19.64,92.02,060220,0.0,E,A*2E
$GPGGA,150800.00,3932.0398831,N,12219.7508264,W,1,09,1.0,84.721,M,0.000,M,0.0,*5C
$GPGSA,A,3,01,03,10,11,14,18,22,31,32,,,,2.0,1.1,1.7,1*27
$GPGSV,3,1,09,01,58,282,53,03,27,303,49,10,15,108,47,11,37,234,50,1*6D
$GPGSV,3,2,09,14,63,038,54,18,60,229,53,22,50,310,53,31,59,130,54,1*6A
$GPGSV,3,3,09,32,37,054,51,,,,,,,,,,,,,1*5D
$GPRMC,150801.00,A,3932.0398233,N,12219.7437729,W,19.91,90.56,060220,0.0,E,A*2F
$GPGGA,150801.00,3932.0398233,N,12219.7437729,W,1,09,1.0,83.348,M,0.000,M,0.0,*58
$GPGSA,A,3,01,03,10,11,14,18,22,31,32,,,,2.0,1.1,1.7,1*27
$GPGSV,3,1,09,01,58,282,52,03,27,303,48,10,15,108,48,11,37,234,50,1*62
$GPGSV,3,2,09,14,63,038,54,18,60,229,53,22,50,310,52,31,59,130,53,1*6C
$GPGSV,3,3,09,32,37,054,50,,,,,,,,,,,,,1*5C
$GPRMC,150802.00,A,3932.0400677,N,12219.7363445,W,19.59,88.78,060220,0.0,E,A*20
$GPGGA,150802.00,3932.0400677,N,12219.7363445,W,1,09,1.0,82.970,M,0.000,M,0.0,*56
$GPGSA,A,3,01,03,10,11,14,18,22,31,32,,,,2.0,1.1,1.7,1*27
$GPGSV,3,1,09,01,58,282,52,03,27,303,49,10,15,108,48,11,37,234,51,1*62
$GPGSV,3,2,09,14,63,038,54,18,60,229,53,22,51,310,52,31,59,130,53,1*6D
$GPGSV,3,3,09,32,37,054,50,,,,,,,,,,,,,1*5C
$GPRMC,150803.00,A,3932.0397526,N,12219.7297101,W,19.03,89.53,060220,0.0,E,A*27
$GPGGA,150803.00,3932.0397526,N,12219.7297101,W,1,09,1.0,82.684,M,0.000,M,0.0,*52
$GPGSA,A,3,01,03,10,11,14,18,22,31,32,,,,2.0,1.1,1.7,1*27
$GPGSV,3,1,09,01,58,282,53,03,27,303,49,10,15,108,48,11,37,234,51,1*63
$GPGSV,3,2,09,14,63,038,54,18,60,229,53,22,51,310,54,31,59,130,54,1*6C
$GPGSV,3,3,09,32,37,054,50,,,,,,,,,,,,,1*5C
$GPRMC,150804.00,A,3932.0397026,N,12219.7229705,W,19.03,91.15,060220,0.0,E,A*29
$GPGGA,150804.00,3932.0397026,N,12219.7229705,W,1,09,1.0,84.028,M,0.000,M,0.0,*51
$GPGSA,A,3,01,03,10,11,14,18,22,31,32,,,,2.0,1.1,1.7,1*27
$GPGSV,3,1,09,01,58,282,52,03,27,303,48,10,15,108,49,11,37,234,50,1*63
$GPGSV,3,2,09,14,63,038,54,18,60,229,52,22,51,310,53,31,59,130,54,1*6A
$GPGSV,3,3,09,32,37,054,51,,,,,,,,,,,,,1*5D
$GPRMC,150805.00,A,3932.0394590,N,12219.7158030,W,19.15,87.19,060220,0.0,E,A*2B
$GPGGA,150805.00,3932.0394590,N,12219.7158030,W,1,09,1.0,84.124,M,0.000,M,0.0,*52
$GPGSA,A,3,01,03,10,11,14,18,22,31,32,,,,2.0,1.1,1.7,1*27
$GPGSV,3,1,09,01,58,282,52,03,27,303,48,10,15,108,48,11,37,234,50,1*62
$GPGSV,3,2,09,14,63,038,54,18,60,229,53,22,51,310,52,31,59,130,53,1*6D
$GPGSV,3,3,09,32,37,054,52,,,,,,,,,,,,,1*5E
$GPRMC,150806.00,A,3932.0398043,N,12219.7087763,W,19.45,89.17,060220,0.0,E,A*28
$GPGGA,150806.00,3932.0398043,N,12219.7087763,W,1,09,1.0,83.401,M,0.000,M,0.0,*51
$GPGSA,A,3,01,03,10,11,14,18,22,31,32,,,,2.0,1.1,1.7,1*27
$GPGSV,3,1,09,01,58,282,54,03,27,303,50,10,15,108,46,11,37,234,51,1*62
$GPGSV,3,2,09,14,63,038,53,18,60,229,53,22,51,310,53,31,59,130,53,1*6B
$GPGSV,3,3,09,32,36,054,52,,,,,,,,,,,,,1*5F
$GPRMC,150807.00,A,3932.0397360,N,12219.7016705,W,18.85,89.33,060220,0.0,E,A*27
$GPGGA,150807.00,3932.0397360,N,12219.7016705,W,1,09,1.0,83.120,M,0.000,M,0.0,*53
$GPGSA,A,3,01,03,10,11,14,18,22,31,32,,,,2.0,1.1,1.7,1*27
$GPGSV,3,1,09,01,58,282,53,03,27,303,50,10,15,108,45,11,37,234,52,1*65
$GPGSV,3,2,09,14,63,038,52,18,60,229,52,22,51,310,52,31,59,130,54,1*6D
$GPGSV,3,3,09,32,36,054,51,,,,,,,,,,,,,1*5C
$GPRMC,150808.00,A,3932.0400208,N,12219.6950966,W,19.39,90.96,060220,0.0,E,A*2E
$GPGGA,150808.00,3932.0400208,N,12219.6950966,W,1,09,1.0,84.664,M,0.000,M,0.0,*5B
$GPGSA,A,3,01,03,10,11,14,18,22,31,32,,,,2.0,1.1,1.7,1*27
$GPGSV,3,1,09,01,58,282,54,03,27,303,49,10,15,108,45,11,37,234,51,1*69
$GPGSV,3,2,09,14,62,038,52,18,60,229,52,22,51,310,54,31,59,130,54,1*6A
$GPGSV,3,3,09,32,36,054,50,,,,,,,,,,,,,1*5D
$GPRMC,150809.00,A,3932.0398421,N,12219.6879523,W,18.85,88.92,060220,0.0,E,A*28
$GPGGA,150809.00,3932.0398421,N,12219.6879523,W,1,09,1.0,83.949,M,0.000,M,0.0,*51
$GPGSA,A,3,01,03,10,11,14,18,22,31,32,,,,2.0,1.1,1.7,1*27
$GPGSV,3,1,09,01,58,281,53,03,27,303,48,10,15,108,47,11,37,234,51,1*6E
$GPGSV,3,2,09,14,62,038,51,18,60,229,51,22,51,310,53,31,59,130,53,1*6A
$GPGSV,3,3,09,32,36,054,51,,,,,,,,,,,,,1*5C
$GPRMC,150810.00,A,3932.0395926,N,12219.6807146,W,19.41,90.38,060220,0.0,E,A*29
$GPGGA,150810.00,3932.0395926,N,12219.6807146,W,1,09,1.0,82.443,M,0.000,M,0.0,*56
$GPGSA,A,3,01,03,10,11,14,18,22,31,32,,,,2.0,1.1,1.7,1*27
$GPGSV,3,1,09,01,58,281,54,03,27,303,48,10,15,108,46,11,37,234,52,1*6B
$GPGSV,3,2,09,14,62,038,52,18,60,229,52,22,51,310,52,31,59,130,54,1*6C
$GPGSV,3,3,09,32,36,054,51,,,,,,,,,,,,,1*5C
$GPRMC,150811.00,A,3932.0393235,N,12219.6737114,W,19.43,89.58,060220,0.0,E,A*20
$GPGGA,150811.00,3932.0393235,N,12219.6737114,W,1,09,1.0,83.450,M,0.000,M,0.0,*50
$GPGSA,A,3,01,03,10,11,14,18,22,31,32,,,,2.0,1.1,1.7,1*27
$GPGSV,3,1,09,01,58,281,54,03,27,303,49,10,15,108,48,11,37,234,51,1*67
$GPGSV,3,2,09,14,62,038,52,18,60,229,51,22,51,310,52,31,59,130,53,1*68
$GPGSV,3,3,09,32,36,054,52,,,,,,,,,,,,,1*5F
$GPRMC,150812.00,A,3932.0396680,N,12219.6672323,W,19.70,90.80,060220,0.0,E,A*27
$GPGGA,150812.00,3932.0396680,N,12219.6672323,W,1,09,1.0,84.703,M,0.000,M,0.0,*58
$GPGSA,A,3,01,03,10,11,14,18,22,31,32,,,,2.0,1.1,1.7,1*27
$GPGSV,3,1,09,01,58,281,53,03,27,303,49,10,15,108,49,11,37,234,50,1*60
$GPGSV,3,2,09,14,62,038,53,18,60,229,50,22,51,310,53,31,59,130,54,1*6E
$GPGSV,3,3,09,32,36,054,51,,,,,,,,,,,,,1*5C
$GPRMC,150813.00,A,3932.0398707,N,12219.6601141,W,19.74,92.57,060220,0.0,E,A*28
$GPGGA,150813.00,3932.0398707,N,12219.6601141,W,1,09,1.0,83.754,M,0.000,M,0.0,*5E
$GPGSA,A,3,01,03,10,11,14,18,22,31,32,,,,2.0,1.1,1.7,1*27
$GPGSV,3,1,09,01,58,281,53,03,27,303,48,10,15,108,49,11,37,234,50,1*61
$GPGSV,3,2,09,14,62,038,53,18,60,229,52,22,51,310,52,31,59,130,54,1*6D
$GPGSV,3,3,09,32,36,054,50,,,,,,,,,,,,,1*5D
$GPRMC,150814.00,A,3932.0395171,N,12219.6531119,W,19.32,89.50,060220,0.0,E,A*27
$GPGGA,150814.00,3932.0395171,N,12219.6531119,W,1,09,1.0,83.946,M,0.000,M,0.0,*53
$GPGSA,A,3,01,03,10,11,14,18,22,31,32,,,,2.0,1.1,1.7,1*27
$GPGSV,3,1,09,01,58,281,54,03,27,303,48,10,15,108,48,11,37,234,52,1*65
$GPGSV,3,2,09,14,62,038,54,18,60,229,54,22,51,310,53,31,59,130,54,1*6D
$GPGSV,3,3,09,32,36,054,50,,,,,,,,,,,,,1*5D
$GPRMC,150815.00,A,3932.0396096,N,12219.6459614,W,19.86,92.39,060220,0.0,E,A*22
$GPGGA,150815.00,3932.0396096,N,12219.6459614,W,1,09,1.0,83.510,M,0.000,M,0.0,*53
$GPGSA,A,3,01,03,10,11,14,18,22,31,32,,,,2.0,1.1,1.7,1*27
$GPGSV,3,1,09,01,58,281,53,03,27,303,49,10,15,108,47,11,37,234,52,1*6C
$GPGSV,3,2,09,14,62,038,54,18,60,229,53,22,51,310,52,31,59,130,54,1*6B
$GPGSV,3,3,09,32,36,054,50,,,,,,,,,,,,,1*5D
$GPRMC,150816.00,A,3932.0395483,N,12219.6389172,W,19.49,90.32,060220,0.0,E,A*25
$GPGGA,150816.00,3932.0395483,N,12219.6389172,W,1,09,1.0,83.634,M,0.000,M,0.0,*5B
$GPGSA,A,3,01,03,10,11,14,18,22,31,32,,,,2.0,1.1,1.7,1*27
$GPGSV,3,1,09,01,58,281,54,03,27,303,50,10,15,108,47,11,37,234,51,1*60
$GPGSV,3,2,09,14,62,038,54,18,60,229,54,22,51,310,52,31,59,130,54,1*6C
$GPGSV,3,3,09,32,36,054,51,,,,,,,,,,,,,1*5C
$GPRMC,150817.00,A,3932.0396063,N,12219.6322955,W,19.61,89.54,060220,0.0,E,A*23
$GPGGA,150817.00,3932.0396063,N,12219.6322955,W,1,09,1.0,83.532,M,0.000,M,0.0,*5A
$GPGSA,A,3,01,03,10,11,14,18,22,31,32,,,,2.0,1.1,1.7,1*27
$GPGSV,3,1,09,01,58,281,54,03,27,303,50,10,15,108,47,11,37,234,51,1*60
$GPGSV,3,2,09,14,62,038,55,18,60,229,54,22,51,310,53,31,59,130,54,1*6C
$GPGSV,3,3,09,32,36,054,51,,,,,,,,,,,,,1*5C
$GPRMC,150818.00,A,3932.0392909,N,12219.6246302,W,19.65,88.96,060220,0.0,E,A*2D
$GPGGA,150818.00,3932.0392909,N,12219.6246302,W,1,09,1.0,83.262,M,0.000,M,0.0,*5D
$GPGSA,A,3,01,03,10,11,14,18,22,31,32,,,,2.0,1.1,1.7,1*27
$GPGSV,3,1,09,01,58,281,53,03,27,303,50,10,15,108,48,11,37,234,50,1*69
$GPGSV,3,2,09,14,62,038,55,18,60,229,54,22,51,310,53,31,59,130,52,1*6A
$GPGSV,3,3,09,32,36,054,50,,,,,,,,,,,,,1*5D
$GPRMC,150819.00,A,3932.0395646,N,12219.6180292,W,19.12,90.56,060220,0.0,E,A*2B
$GPGGA,150819.00,3932.0395646,N,12219.6180292,W,1,09,1.0,83.372,M,0.000,M,0.0,*5E
$GPGSA,A,3,01,03,10,11,14,18,22,31,32,,,,2.0,1.1,1.7,1*27
$GPGSV,3,1,09,01,58,281,53,03,27,303,50,10,15,108,47,11,37,234,51,1*67
$GPGSV,3,2,09,14,62,038,55,18,60,229,54,22,51,310,53,31,59,130,52,1*6A
$GPGSV,3,3,09,32,36,054,50,,,,,,,,,,,,,1*5D
$GPRMC,150820.00,A,3932.0399915,N,12219.6110126,W,19.50,88.31,060220,0.0,E,A*2F
$GPGGA,150820.00,3932.0399915,N,12219.6110126,W,1,09,1.0,84.004,M,0.000,M,0.0,*51
$GPGSA,A,3,01,03,10,11,14,18,22,31,32,,,,2.0,1.1,1.7,1*27
$GPGSV,3,1,09,01,58,281,54,03,27,303,49,10,15,108,47,11,37,234,50,1*69
$GPGSV,3,2,09,14,62,038,55,18,60,229,54,22,51,310,53,31,59,130,55,1*6D
$GPGSV,3,3,09,32,36,054,51,,,,,,,,,,,,,1*5C
$GPRMC,150821.00,A,3932.0396363,N,12219.6038923,W,19.62,89.95,060220,0.0,E,A*22
$GPGGA,150821.00,3932.0396363,N,12219.6038923,W,1,09,1.0,84.557,M,0.000,M,0.0,*51
$GPGSA,A,3,01,03,10,11,14,18,22,31,32,,,,2.0,1.1,1.7,1*27
$GPGSV,3,1,09,01,58,281,54,03,27,303,50,10,15,108,47,11,37,234,51,1*60
$GPGSV,3,2,09,14,62,038,56,18,60,229,54,22,51,310,54,31,59,130,54,1*68
$GPGSV,3,3,09,32,36,054,52,,,,,,,,,,,,,1*5F
$GPRMC,150822.00,A,3932.0397978,N,12219.5969448,W,19.26,88.45,060220,0.0,E,A*22
$GPGGA,150822.00,3932.0397978,N,12219.5969448,W,1,09,1.0,83.059,M,0.000,M,0.0,*51
$GPGSA,A,3,01,03,10,11,14,18,22,31,32,,,,2.0,1.1,1.7,1*27
$GPGSV,3,1,09,01,58,281,55,03,27,303,50,10,15,108,47,11,37,234,50,1*60
$GPGSV,3,2,09,14,62,038,55,18,60,229,54,22,51,310,52,31,59,130,54,1*6D
$GPGSV,3,3,09,32,36,054,52,,,,,,,,,,,,,1*5F
$GPRMC,150823.00,A,3932.0396797,N,12219.5900676,W,19.08,88.99,060220,0.0,E,A*20
$GPGGA,150823.00,3932.0396797,N,12219.5900676,W,1,09,1.0,83.557,M,0.000,M,0.0,*55
$GPGSA,A,3,01,03,10,11,14,18,22,31,32,,,,2.0,1.1,1.7,1*27
$GPGSV,3,1,09,01,58,281,54,03,27,303,50,10,15,108,48,11,37,234,51,1*6F
$GPGSV,3,2,09,14,62,038,54,18,60,229,54,22,51,310,51,31,59,130,54,1*6F
$GPGSV,3,3,09,32,36,054,51,,,,,,,,,,,,,1*5C
$GPRMC,150824.00,A,3932.0394506,N,12219.5830121,W,19.31,89.08,060220,0.0,E,A*2B
$GPGGA,150824.00,3932.0394506,N,12219.5830121,W,1,09,1.0,82.139,M,0.000,M,0.0,*50
$GPGSA,A,3,01,03,10,11,14,18,22,31,32,,,,2.0,1.1,1.7,1*27
$GPGSV,3,1,09,01,58,281,54,03,27,303,50,10,15,108,49,11,37,234,53,1*6C
$GPGSV,3,2,09,14,62,038,54,18,60,229,54,22,51,310,52,31,59,130,54,1*6C
$GPGSV,3,3,09,32,36,054,50,,,,,,,,,,,,,1*5D
$GPRMC,150825.00,A,3932.0395282,N,12219.5761756,W,19.75,89.34,060220,0.0,E,A*22
$GPGGA,150825.00,3932.0395282,N,12219.5761756,W,1,09,1.0,85.882,M,0.000,M,0.0,*58
$GPGSA,A,3,01,03,10,11,14,18,22,31,32,,,,2.0,1.1,1.7,1*27
$GPGSV,3,1,09,01,58,281,54,03,27,303,49,10,15,108,48,11,37,234,53,1*65
$GPGSV,3,2,09,14,62,038,55,18,60,229,54,22,51,310,53,31,59,130,54,1*6C
$GPGSV,3,3,09,32,36,054,50,,,,,,,,,,,,,1*5D
$GPRMC,150826.00,A,3932.0399116,N,12219.5692423,W,19.39,88.74,060220,0.0,E,A*22
$GPGGA,150826.00,3932.0399116,N,12219.5692423,W,1,09,1.0,82.862,M,0.000,M,0.0,*5C
$GPGSA,A,3,01,03,10,11,14,18,22,31,32,,,,2.0,1.1,1.7,1*27
$GPGSV,3,1,09,01,58,281,54,03,27,303,49,10,15,108,48,11,37,234,52,1*64
$GPGSV,3,2,09,14,62,038,55,18,60,229,54,22,51,310,53,31,59,130,54,1*6C
$GPGSV,3,3,09,32,36,054,50,,,,,,,,,,,,,1*5D
$GPRMC,150827.00,A,3932.0401633,N,12219.5621830,W,19.50,90.62,060220,0.0,E,A*22
$GPGGA,150827.00,3932.0401633,N,12219.5621830,W,1,09,1.0,87.272,M,0.000,M,0.0,*53
$GPGSA,A,3,01,03,10,11,14,18,22,31,32,,,,2.0,1.1,1.7,1*27
$GPGSV,3,1,09,01,58,281,54,03,27,303,47,10,15,108,48,11,37,234,51,1*69
$GPGSV,3,2,09,14,62,038,54,18,60,229,55,22,51,310,52,31,59,130,54,1*6D
$GPGSV,3,3,09,32,36,054,50,,,,,,,,,,,,,1*5D
$GPRMC,150828.00,A,3932.0394875,N,12219.5555783,W,19.45,88.62,060220,0.0,E,A*20
$GPGGA,150828.00,3932.0394875,N,12219.5555783,W,1,09,1.0,84.174,M,0.000,M,0.0,*5A
$GPGSA,A,3,01,03,10,11,14,18,22,31,32,,,,2.0,1.1,1.7,1*27
$GPGSV,3,1,09,01,58,281,53,03,27,303,47,10,15,108,50,11,37,234,50,1*66
$GPGSV,3,2,09,14,62,038,54,18,60,229,54,22,51,310,54,31,59,130,54,1*6A
$GPGSV,3,3,09,32,36,054,51,,,,,,,,,,,,,1*5C
$GPRMC,150829.00,A,3932.0395247,N,12219.5484886,W,19.24,89.30,060220,0.0,E,A*2D
$GPGGA,150829.00,3932.0395247,N,12219.5484886,W,1,09,1.0,83.379,M,0.000,M,0.0,*5E
$GPGSA,A,3,01,03,10,11,14,18,22,31,32,,,,2.0,1.1,1.7,1*27
$GPGSV,3,1,09,01,58,281,52,03,27,303,48,10,15,108,48,11,37,234,50,1*61
$GPGSV,3,2,09,14,62,038,54,18,59,229,54,22,51,310,52,31,59,130,55,1*67
$GPGSV,3,3,09,32,36,054,51,,,,,,,,,,,,,1*5C
$GPRMC,150830.00,A,3932.0394545,N,12219.5415244,W,19.75,90.71,060220,0.0,E,A*24
$GPGGA,150830.00,3932.0394545,N,12219.5415244,W,1,09,1.0,82.562,M,0.000,M,0.0,*53
$GPGSA,A,3,01,03,10,11,14,18,22,31,32,,,,2.0,1.1,1.7,1*27
$GPGSV,3,1,09,01,58,281,54,03,27,303,49,10,15,108,48,11,37,234,51,1*67
$GPGSV,3,2,09,14,62,038,55,18,59,229,56,22,51,310,54,31,59,130,54,1*63
$GPGSV,3,3,09,32,36,054,50,,,,,,,,,,,,,1*5D
$GPRMC,150831.00,A,3932.0396888,N,12219.5341775,W,19.04,92.13,060220,0.0,E,A*2A
$GPGGA,150831.00,3932.0396888,N,12219.5341775,W,1,09,1.0,80.949,M,0.000,M,0.0,*5A
$GPGSA,A,3,01,03,10,11,14,18,22,31,32,,,,2.0,1.1,1.7,1*27
$GPGSV,3,1,09,01,58,281,53,03,27,303,49,10,15,108,47,11,37,234,52,1*6C
$GPGSV,3,2,09,14,62,038,54,18,59,229,56,22,51,310,53,31,59,130,53,1*62
$GPGSV,3,3,09,32,36,054,50,,,,,,,,,,,,,1*5D
$GPRMC,150832.00,A,3932.0394877,N,12219.5273847,W,19.18,91.26,060220,0.0,E,A*2D
$GPGGA,150832.00,3932.0394877,N,12219.5273847,W,1,09,1.0,82.375,M,0.000,M,0.0,*52
$GPGSA,A,3,01,03,10,11,14,18,22,31,32,,,,2.0,1.1,1.7,1*27
$GPGSV,3,1,09,01,58,281,52,03,27,303,48,10,15,108,47,11,37,234,51,1*6F
$GPGSV,3,2,09,14,62,038,55,18,59,229,54,22,51,310,54,31,59,130,52,1*67
$GPGSV,3,3,09,32,36,054,50,,,,,,,,,,,,,1*5D
$GPRMC,150833.00,A,3932.0395688,N,12219.5204129,W,19.35,89.66,060220,0.0,E,A*20
$GPGGA,150833.00,3932.0395688,N,12219.5204129,W,1,09,1.0,83.549,M,0.000,M,0.0,*55
$GPGSA,A,3,01,03,10,11,14,18,22,31,32,,,,2.0,1.1,1.7,1*27
$GPGSV,3,1,09,01,58,281,54,03,27,303,49,10,15,108,47,11,37,234,51,1*68
$GPGSV,3,2,09,14,62,038,55,18,59,229,54,22,51,310,54,31,59,129,54,1*69
$GPGSV,3,3,09,32,36,054,51,,,,,,,,,,,,,1*5C
$GPRMC,150834.00,A,3932.0397770,N,12219.5133394,W,19.43,91.59,060220,0.0,E,A*24
$GPGGA,150834.00,3932.0397770,N,12219.5133394,W,1,09,1.0,83.785,M,0.000,M,0.0,*57
$GPGSA,A,3,01,03,10,11,14,18,22,31,32,,,,2.0,1.1,1.7,1*27
$GPGSV,3,1,09,01,58,281,52,03,27,303,50,10,15,108,47,11,37,234,51,1*66
$GPGSV,3,2,09,14,62,038,54,18,59,229,52,22,51,310,54,31,59,129,54,1*6E
$GPGSV,3,3,09,32,36,054,51,,,,,,,,,,,,,1*5C
$GPRMC,150835.00,A,3932.0397518,N,12219.5064760,W,19.12,88.47,060220,0.0,E,A*26
$GPGGA,150835.00,3932.0397518,N,12219.5064760,W,1,09,1.0,83.792,M,0.000,M,0.0,*50
$GPGSA,A,3,01,03,10,11,14,18,22,31,32,,,,2.0,1.1,1.7,1*27
$GPGSV,3,1,09,01,58,281,54,03,27,303,51,10,15,108,46,11,37,234,51,1*60
$GPGSV,3,2,09,14,62,038,54,18,59,229,52,22,51,310,54,31,59,129,53,1*69
$GPGSV,3,3,09,32,36,054,51,,,,,,,,,,,,,1*5C
$GPRMC,150836.00,A,3932.0397529,N,12219.4992167,W,19.78,90.92,060220,0.0,E,A*2A
$GPGGA,150836.00,3932.0397529,N,12219.4992167,W,1,09,1.0,84.398,M,0.000,M,0.0,*58
$GPGSA,A,3,01,03,10,11,14,18,22,31,32,,,,2.0,1.1,1.7,1*27
$GPGSV,3,1,09,01,58,281,55,03,27,303,50,10,15,108,46,11,37,234,51,1*60
$GPGSV,3,2,09,14,62,038,53,18,59,228,52,22,51,310,52,31,59,129,53,1*69
$GPGSV,3,3,09,32,36,054,51,,,,,,,,,,,,,1*5C
$GPRMC,150837.00,A,3932.0399972,N,12219.4926196,W,19.17,90.82,060220,0.0,E,A*2E
$GPGGA,150837.00,3932.0399972,N,12219.4926196,W,1,09,1.0,81.393,M,0.000,M,0.0,*5A
$GPGSA,A,3,01,03,10,11,14,18,22,31,32,,,,2.0,1.1,1.7,1*27
$GPGSV,3,1,09,01,58,281,54,03,27,303,49,10,15,108,46,11,37,234,52,1*6A
$GPGSV,3,2,09,14,62,038,52,18,59,228,52,22,51,310,53,31,59,129,52,1*68
$GPGSV,3,3,09,32,36,054,52,,,,,,,,,,,,,1*5F
$GPRMC,150838.00,A,3932.0394062,N,12219.4853849,W,19.09,89.03,060220,0.0,E,A*22
$GPGGA,150838.00,3932.0394062,N,12219.4853849,W,1,09,1.0,82.744,M,0.000,M,0.0,*55
$GPGSA,A,3,01,03,10,11,14,18,22,31,32,,,,2.0,1.1,1.7,1*27
$GPGSV,3,1,09,01,58,281,54,03,27,303,48,10,15,108,48,11,37,234,52,1*65
$GPGSV,3,2,09,14,62,038,52,18,59,228,52,22,51,310,52,31,59,129,52,1*69
$GPGSV,3,3,09,32,36,054,52,,,,,,,,,,,,,1*5F
$GPRMC,150839.00,A,3932.0397170,N,12219.4783102,W,19.52,89.78,060220,0.0,E,A*24
$GPGGA,150839.00,3932.0397170,N,12219.4783102,W,1,09,1.0,83.318,M,0.000,M,0.0,*5D
$GPGSA,A,3,01,03,10,11,14,18,22,31,32,,,,2.0,1.1,1.7,1*27
$GPGSV,3,1,09,01,58,281,54,03,27,303,48,10,15,108,47,11,37,234,53,1*6B
$GPGSV,3,2,09,14,62,038,52,18,59,228,51,22,51,310,52,31,59,129,52,1*6A
$GPGSV,3,3,09,32,36,054,51,,,,,,,,,,,,,1*5C
$GPRMC,150840.00,A,3932.0397814,N,12219.4717384,W,19.61,89.81,060220,0.0,E,A*26
$GPGGA,150840.00,3932.0397814,N,12219.4717384,W,1,09,1.0,83.557,M,0.000,M,0.0,*54
$GPGSA,A,3,01,03,10,11,14,18,22,31,32,,,,2.0,1.1,1.7,1*27
$GPGSV,3,1,09,01,58,281,55,03,27,303,48,10,15,108,46,11,37,234,52,1*6A
$GPGSV,3,2,09,14,62,038,52,18,59,228,52,22,51,310,53,31,59,129,54,1*6E
$GPGSV,3,3,09,32,36,054,51,,,,,,,,,,,,,1*5C
$GPRMC,150841.00,A,3932.0396855,N,12219.4642808,W,19.51,90.27,060220,0.0,E,A*2A
$GPGGA,150841.00,3932.0396855,N,12219.4642808,W,1,09,1.0,83.427,M,0.000,M,0.0,*59
$GPGSA,A,3,01,03,10,11,14,18,22,31,32,,,,2.0,1.1,1.7,1*27
$GPGSV,3,1,09,01,58,281,54,03,27,303,47,10,15,108,47,11,37,234,52,1*65
$GPGSV,3,2,09,14,62,038,52,18,59,228,53,22,51,310,52,31,59,129,54,1*6E
$GPGSV,3,3,09,32,36,054,52,,,,,,,,,,,,,1*5F
$GPRMC,150842.00,A,3932.0397320,N,12219.4573606,W,19.31,91.60,060220,0.0,E,A*24
$GPGGA,150842.00,3932.0397320,N,12219.4573606,W,1,09,1.0,83.871,M,0.000,M,0.0,*5C
$GPGSA,A,3,01,03,10,11,14,18,22,31,32,,,,2.0,1.1,1.7,1*27
$GPGSV,3,1,09,01,58,281,56,03,27,303,48,10,15,108,48,11,37,234,50,1*65
$GPGSV,3,2,09,14,62,038,54,18,59,228,53,22,51,310,52,31,59,129,54,1*68
$GPGSV,3,3,09,32,36,054,51,,,,,,,,,,,,,1*5C
$GPRMC,150843.00,A,3932.0392841,N,12219.4505075,W,19.94,90.90,060220,0.0,E,A*2E
$GPGGA,150843.00,3932.0392841,N,12219.4505075,W,1,09,1.0,82.618,M,0.000,M,0.0,*57
$GPGSA,A,3,01,03,10,11,14,18,22,31,32,,,,2.0,1.1,1.7,1*27
$GPGSV,3,1,09,01,58,281,54,03,27,303,49,10,15,108,48,11,37,234,51,1*67
$GPGSV,3,2,09,14,62,038,54,18,59,228,53,22,51,310,51,31,59,129,53,1*6C
$GPGSV,3,3,09,32,36,054,50,,,,,,,,,,,,,1*5D
$GPRMC,150844.00,A,3932.0398412,N,12219.4435593,W,19.59,90.11,060220,0.0,E,A*2E
$GPGGA,150844.00,3932.0398412,N,12219.4435593,W,1,09,1.0,83.724,M,0.000,M,0.0,*50
$GPGSA,A,3,01,03,10,11,14,18,22,31,32,,,,2.0,1.1,1.7,1*27
$GPGSV,3,1,09,01,58,281,52,03,27,303,49,10,15,108,48,11,37,234,50,1*60
$GPGSV,3,2,09,14,62,038,54,18,59,228,52,22,51,310,51,31,59,129,54,1*6A
$GPGSV,3,3,09,32,36,054,50,,,,,,,,,,,,,1*5D
$GPRMC,150845.00,A,3932.0395752,N,12219.4368636,W,19.42,88.44,060220,0.0,E,A*25
$GPGGA,150845.00,3932.0395752,N,12219.4368636,W,1,09,1.0,83.737,M,0.000,M,0.0,*5A
$GPGSA,A,3,01,03,10,11,14,18,22,31,32,,,,2.0,1.1,1.7,1*27
$GPGSV,3,1,09,01,58,281,53,03,27,303,49,10,15,108,47,11,37,234,50,1*6E
$GPGSV,3,2,09,14,62,038,54,18,59,228,53,22,51,310,52,31,59,129,55,1*69
$GPGSV,3,3,09,32,36,054,50,,,,,,,,,,,,,1*5D
$GPRMC,150846.00,A,3932.0395351,N,12219.4296203,W,19.19,88.27,060220,0.0,E,A*28
$GPGGA,150846.00,3932.0395351,N,12219.4296203,W,1,09,1.0,81.633,M,0.000,M,0.0,*5B
$GPGSA,A,3,01,03,10,11,14,18,22,31,32,,,,2.0,1.1,1.7,1*27
$GPGSV,3,1,09,01,58,281,52,03,27,303,50,10,15,108,48,11,37,234,49,1*60
$GPGSV,3,2,09,14,62,038,54,18,59,228,54,22,51,310,53,31,59,129,55,1*6F
$GPGSV,3,3,09,32,36,054,50,,,,,,,,,,,,,1*5D
$GPRMC,150847.00,A,3932.0395886,N,12219.4227179,W,19.53,90.08,060220,0.0,E,A*26
$GPGGA,150847.00,3932.0395886,N,12219.4227179,W,1,09,1.0,83.892,M,0.000,M,0.0,*58
$GPGSA,A,3,01,03,10,11,14,18,22,31,32,,,,2.0,1.1,1.7,1*27
$GPGSV,3,1,09,01,58,281,53,03,27,303,50,10,15,108,48,11,37,234,49,1*61
$GPGSV,3,2,09,14,62,038,54,18,59,228,54,22,51,310,52,31,59,129,54,1*6F
$GPGSV,3,3,09,32,36,054,50,,,,,,,,,,,,,1*5D
$GPRMC,150848.00,A,3932.0398025,N,12219.4162673,W,19.69,92.97,060220,0.0,E,A*27
$GPGGA,150848.00,3932.0398025,N,12219.4162673,W,1,09,1.0,84.277,M,0.000,M,0.0,*52
$GPGSA,A,3,01,03,10,11,14,18,22,31,32,,,,2.0,1.1,1.7,1*27
$GPGSV,3,1,09,01,58,281,52,03,27,303,49,10,15,108,47,11,37,234,49,1*67
$GPGSV,3,2,09,14,62,038,54,18,59,228,54,22,51,310,51,31,59,129,54,1*6C
$GPGSV,3,3,09,32,36,054,49,,,,,,,,,,,,,1*55
$GPRMC,150849.00,A,3932.0401165,N,12219.4088450,W,19.02,88.10,060220,0.0,E,A*2B
$GPGGA,150849.00,3932.0401165,N,12219.4088450,W,1,09,1.0,82.543,M,0.000,M,0.0,*51
$GPGSA,A,3,01,03,10,11,14,18,22,31,32,,,,2.0,1.1,1.7,1*27
$GPGSV,3,1,09,01,58,281,52,03,27,303,48,10,15,108,46,11,37,234,50,1*6F
$GPGSV,3,2,09,14,62,038,54,18,59,228,54,22,51,310,52,31,59,129,53,1*68
$GPGSV,3,3,09,32,36,054,49,,,,,,,,,,,,,1*55
$GPRMC,150850.00,A,3932.0397035,N,12219.4014191,W,19.51,90.23,060220,0.0,E,A*2D
$GPGGA,150850.00,3932.0397035,N,12219.4014191,W,1,09,1.0,83.647,M,0.000,M,0.0,*5E
$GPGSA,A,3,01,03,10,11,14,18,22,31,32,,,,2.0,1.1,1.7,1*27
$GPGSV,3,1,09,01,58,281,54,03,27,303,48,10,15,108,46,11,37,234,50,1*69
$GPGSV,3,2,09,14,62,038,54,18,59,228,53,22,51,310,52,31,59,129,53,1*6F
$GPGSV,3,3,09,32,36,054,49,,,,,,,,,,,,,1*55
$GPRMC,150851.00,A,3932.0394988,N,12219.3948678,W,19.52,88.23,060220,0.0,E,A*2D
$GPGGA,150851.00,3932.0394988,N,12219.3948678,W,1,09,1.0,84.038,M,0.000,M,0.0,*5D
$GPGSA,A,3,01,03,10,11,14,18,22,31,32,,,,2.0,1.1,1.7,1*27
$GPGSV,3,1,09,01,58,281,52,03,27,303,49,10,15,108,46,11,37,234,50,1*6E
$GPGSV,3,2,09,14,62,038,54,18,59,228,53,22,51,310,52,31,59,129,52,1*6E
$GPGSV,3,3,09,32,36,054,48,,,,,,,,,,,,,1*54
$GPRMC,150852.00,A,3932.0397978,N,12219.3879500,W,19.27,88.68,060220,0.0,E,A*20
$GPGGA,150852.00,3932.0397978,N,12219.3879500,W,1,09,1.0,85.086,M,0.000,M,0.0,*59
$GPGSA,A,3,01,03,10,11,14,18,22,31,32,,,,2.0,1.1,1.7,1*27
$GPGSV,3,1,09,01,58,281,52,03,27,303,50,10,15,108,45,11,37,234,50,1*65
$GPGSV,3,2,09,14,62,038,54,18,59,228,54,22,51,310,52,31,59,129,52,1*69
$GPGSV,3,3,09,32,36,054,49,,,,,,,,,,,,,1*55
$GPRMC,150853.00,A,3932.0393197,N,12219.3803211,W,19.14,90.20,060220,0.0,E,A*23
$GPGGA,150853.00,3932.0393197,N,12219.3803211,W,1,09,1.0,81.303,M,0.000,M,0.0,*55
$GPGSA,A,3,01,03,10,11,14,18,22,31,32,,,,2.0,1.1,1.7,1*27
$GPGSV,3,1,09,01,58,281,52,03,27,303,50,10,15,108,46,11,37,234,49,1*6E
$GPGSV,3,2,09,14,62,038,55,18,59,228,54,22,51,310,52,31,59,129,52,1*68
$GPGSV,3,3,09,32,36,054,49,,,,,,,,,,,,,1*55
$GPRMC,150854.00,A,3932.0394100,N,12219.3737870,W,19.49,88.14,060220,0.0,E,A*2E
$GPGGA,150854.00,3932.0394100,N,12219.3737870,W,1,09,1.0,82.755,M,0.000,M,0.0,*5A
$GPGSA,A,3,01,03,10,11,14,18,22,31,32,,,,2.0,1.1,1.7,1*27
$GPGSV,3,1,09,01,58,281,52,03,27,303,50,10,15,108,46,11,37,234,50,1*66
$GPGSV,3,2,09,14,62,038,55,18,59,228,54,22,51,310,52,31,59,129,52,1*68
$GPGSV,3,3,09,32,36,054,49,,,,,,,,,,,,,1*55
$GPRMC,150855.00,A,3932.0396306,N,12219.3670318,W,19.35,89.78,060220,0.0,E,A*2E
$GPGGA,150855.00,3932.0396306,N,12219.3670318,W,1,09,1.0,84.405,M,0.000,M,0.0,*5A
$GPGSA,A,3,01,03,10,11,14,18,22,31,32,,,,2.0,1.1,1.7,1*27
$GPGSV,3,1,09,01,58,281,52,03,27,303,50,10,15,108,46,11,37,234,48,1*6F
$GPGSV,3,2,09,14,62,039,54,18,59,228,54,22,51,310,52,31,59,129,51,1*6B
$GPGSV,3,3,09,32,36,054,48,,,,,,,,,,,,,1*54
$GPRMC,150856.00,A,3932.0396484,N,12219.3597352,W,19.06,91.12,060220,0.0,E,A*21
$GPGGA,150856.00,3932.0396484,N,12219.3597352,W,1,09,1.0,83.341,M,0.000,M,0.0,*50
$GPGSA,A,3,01,03,10,11,14,18,22,31,32,,,,2.0,1.1,1.7,1*27
$GPGSV,3,1,09,01,58,281,53,03,27,303,49,10,15,108,47,11,37,234,48,1*67
$GPGSV,3,2,09,14,62,039,54,18,59,228,53,22,51,310,52,31,59,129,52,1*6F
$GPGSV,3,3,09,32,36,054,48,,,,,,,,,,,,,1*54
$GPRMC,150857.00,A,3932.0394981,N,12219.3530560,W,19.67,91.71,060220,0.0,E,A*22
$GPGGA,150857.00,3932.0394981,N,12219.3530560,W,1,09,1.0,84.727,M,0.000,M,0.0,*52
$GPGSA,A,3,01,03,10,11,14,18,22,31,32,,,,2.0,1.1,1.7,1*27
$GPGSV,3,1,09,01,58,281,54,03,27,303,49,10,15,108,46,11,37,234,48,1*61
$GPGSV,3,2,09,14,62,039,55,18,59,228,54,22,51,310,53,31,59,129,53,1*69
$GPGSV,3,3,09,32,36,054,48,,,,,,,,,,,,,1*54
$GPRMC,150858.00,A,3932.0391510,N,12219.3457806,W,19.48,89.35,060220,0.0,E,A*25
$GPGGA,150858.00,3932.0391510,N,12219.3457806,W,1,09,1.0,82.389,M,0.000,M,0.0,*57
$GPGSA,A,3,01,03,10,11,14,18,22,31,32,,,,2.0,1.1,1.7,1*27
$GPGSV,3,1,09,01,58,281,54,03,27,303,50,10,15,108,47,11,37,234,48,1*68
$GPGSV,3,2,09,14,62,039,55,18,59,228,55,22,51,310,52,31,59,129,53,1*69
$GPGSV,3,3,09,32,36,054,49,,,,,,,,,,,,,1*55
$GPRMC,150859.00,A,3932.0398721,N,12219.3390235,W,19.53,89.04,060220,0.0,E,A*23
$GPGGA,150859.00,3932.0398721,N,12219.3390235,W,1,09,1.0,84.714,M,0.000,M,0.0,*5F
$GPGSA,A,3,01,03,10,11,14,18,22,31,32,,,,2.0,1.1,1.7,1*27
$GPGSV,3,1,09,01,58,281,52,03,27,303,49,10,15,108,47,11,37,234,49,1*67
$GPGSV,3,2,09,14,62,039,54,18,59,228,55,22,51,310,52,31,59,129,52,1*69
$GPGSV,3,3,09,32,36,054,49,,,,,,,,,,,,,1*55
$GPRMC,150900.00,A,3932.0397047,N,12219.3319760,W,19.36,88.30,060220,0.0,E,A*27
$GPGGA,150900.00,3932.0397047,N,12219.3319760,W,1,09,1.0,83.271,M,0.000,M,0.0,*5F
$GPGSA,A,3,01,03,10,11,14,18,22,31,32,,,,2.0,1.1,1.7,1*27
$GPGSV,3,1,09,01,58,281,52,03,27,303,49,10,15,108,48,11,37,234,49,1*68
$GPGSV,3,2,09,14,62,039,54,18,59,228,54,22,51,310,52,31,59,129,52,1*68
$GPGSV,3,3,09,32,36,054,50,,,,,,,,,,,,,1*5D
$GPRMC,150901.00,A,3932.0396826,N,12219.3250101,W,19.38,88.92,060220,0.0,E,A*23
$GPGGA,150901.00,3932.0396826,N,12219.3250101,W,1,09,1.0,83.505,M,0.000,M,0.0,*59
$GPGSA,A,3,01,03,10,11,14,18,22,31,32,,,,2.0,1.1,1.7,1*27
$GPGSV,3,1,09,01,58,281,52,03,27,303,48,10,15,108,47,11,37,234,50,1*6E
$GPGSV,3,2,09,14,62,039,56,18,59,228,54,22,51,310,52,31,59,129,52,1*6A
$GPGSV,3,3,09,32,36,054,50,,,,,,,,,,,,,1*5D
$GPRMC,150902.00,A,3932.0398792,N,12219.3181816,W,19.04,89.95,060220,0.0,E,A*27
$GPGGA,150902.00,3932.0398792,N,12219.3181816,W,1,09,1.0,83.357,M,0.000,M,0.0,*55
$GPGSA,A,3,01,03,10,11,14,18,22,31,32,,,,2.0,1.1,1.7,1*27
$GPGSV,3,1,09,01,58,281,53,03,27,303,48,10,15,108,47,11,37,234,50,1*6F
$GPGSV,3,2,09,14,62,039,55,18,59,228,54,22,51,310,52,31,59,129,52,1*69
$GPGSV,3,3,09,32,36,054,50,,,,,,,,,,,,,1*5D
$GPRMC,150903.00,A,3932.0392612,N,12219.3107098,W,19.14,87.73,060220,0.0,E,A*22
$GPGGA,150903.00,3932.0392612,N,12219.3107098,W,1,09,1.0,81.101,M,0.000,M,0.0,*54
$GPGSA,A,3,01,03,10,11,14,18,22,31,32,,,,2.0,1.1,1.7,1*27
$GPGSV,3,1,09,01,58,281,53,03,27,303,48,10,15,108,48,11,37,234,51,1*61
$GPGSV,3,2,09,14,62,039,55,18,59,228,55,22,51,310,51,31,59,129,53,1*6A
$GPGSV,3,3,09,32,36,054,51,,,,,,,,,,,,,1*5C
$GPRMC,150904.00,A,3932.0399212,N,12219.3041448,W,19.85,90.30,060220,0.0,E,A*29
$GPGGA,150904.00,3932.0399212,N,12219.3041448,W,1,09,1.0,84.094,M,0.000,M,0.0,*5E
